{
  "data": [
    {
      "id": "MA3",
      "name": "Yeshiva University Museum",
      "type": "museum_art",
      "address": "None None, None Manhattan",
      "internet_access": null,
      "wheelchair_accessible": null,
      "opening_hours": null,
      "grid-id": 339,
      "taxi-zone": 234,
      "precinct": 13,
      "b-score": null,
      "c-score": null,
      "rating": 1.5,
      "location": {
        "latitude": 40.737978,
        "longitude": -73.9938312
      }
    },
    {
      "id": "MA6",
      "name": "Lower East Side Tenement Museum",
      "type": "museum_art",
      "address": "103 Orchard Street, None Manhattan",
      "internet_access": null,
      "wheelchair_accessible": null,
      "opening_hours": "Mo-Su 10:00-18:00",
      "grid-id": 390,
      "taxi-zone": 148,
      "precinct": 7,
      "b-score": null,
      "c-score": null,
      "rating": 1.5,
      "location": {
        "latitude": 40.7187837,
        "longitude": -73.9900266
      }
    },
    {
      "id": "MA7",
      "name": "International Center of Photography",
      "type": "museum_art",
      "address": "1133 6th Avenue, 10036 Manhattan",
      "internet_access": null,
      "wheelchair_accessible": null,
      "opening_hours": null,
      "grid-id": 501,
      "taxi-zone": 230,
      "precinct": 14,
      "b-score": null,
      "c-score": null,
      "rating": 1.5,
      "location": {
        "latitude": 40.7557394,
        "longitude": -73.9837251
      }
    },
    {
      "id": "MA8",
      "name": "Dyckman Farmhouse Museum",
      "type": "museum_art",
      "address": "4881 Broadway, 10034 Manhattan",
      "internet_access": null,
      "wheelchair_accessible": "no",
      "opening_hours": "Th-Sa 11:00-16:00; Su 11:00-15:00",
      "grid-id": 1532,
      "taxi-zone": 127,
      "precinct": 34,
      "b-score": null,
      "c-score": null,
      "rating": 1.5,
      "location": {
        "latitude": 40.8673822,
        "longitude": -73.9228859
      }
    },
    {
      "id": "MA10",
      "name": "Rubin Museum of Art",
      "type": "museum_art",
      "address": "150 West 17th Street, 10011 Manhattan",
      "internet_access": null,
      "wheelchair_accessible": null,
      "opening_hours": "Mo 11:00-17:00, Sa,Su 11:00-18:00; We 11:00-21:00, Th 11:00-17:00, Fr 11:00-22:00",
      "grid-id": 262,
      "taxi-zone": 90,
      "precinct": 13,
      "b-score": null,
      "c-score": null,
      "rating": 1.5,
      "location": {
        "latitude": 40.7400959,
        "longitude": -73.9977377
      }
    },
    {
      "id": "MA11",
      "name": "100 Gates Project",
      "type": "museum_art",
      "address": "None None, None Manhattan",
      "internet_access": null,
      "wheelchair_accessible": null,
      "opening_hours": null,
      "grid-id": 391,
      "taxi-zone": 148,
      "precinct": 7,
      "b-score": null,
      "c-score": null,
      "rating": 1.5,
      "location": {
        "latitude": 40.7165969,
        "longitude": -73.9908729
      }
    },
    {
      "id": "MA12",
      "name": "Fotografiska",
      "type": "museum_art",
      "address": "281 Park Avenue South, 10010 Manhattan",
      "internet_access": null,
      "wheelchair_accessible": null,
      "opening_hours": "Mo-Su 09:00-21:00",
      "grid-id": 464,
      "taxi-zone": 107,
      "precinct": 13,
      "b-score": null,
      "c-score": null,
      "rating": 1.5,
      "location": {
        "latitude": 40.7392696,
        "longitude": -73.986775
      }
    },
    {
      "id": "MA14",
      "name": "Hall des Lumi\u00e8res",
      "type": "museum_art",
      "address": "49 Chambers Street, 10007 Manhattan",
      "internet_access": null,
      "wheelchair_accessible": null,
      "opening_hours": "10:00-18:00; Tu off; Th-Sa 10:00-22:00",
      "grid-id": 162,
      "taxi-zone": 231,
      "precinct": 5,
      "b-score": null,
      "c-score": null,
      "rating": 1.5,
      "location": {
        "latitude": 40.7137437,
        "longitude": -74.005072
      }
    },
    {
      "id": "MA16",
      "name": "The Houdini Museum of New York",
      "type": "museum_art",
      "address": "None None, None Manhattan",
      "internet_access": null,
      "wheelchair_accessible": null,
      "opening_hours": null,
      "grid-id": 372,
      "taxi-zone": 186,
      "precinct": 14,
      "b-score": null,
      "c-score": null,
      "rating": 1.5,
      "location": {
        "latitude": 40.7502679,
        "longitude": -73.9906463
      }
    },
    {
      "id": "MA17",
      "name": "American Folk Art Museum",
      "type": "museum_art",
      "address": "2 Lincoln Square, None Manhattan",
      "internet_access": null,
      "wheelchair_accessible": "yes",
      "opening_hours": null,
      "grid-id": 539,
      "taxi-zone": 142,
      "precinct": 20,
      "b-score": null,
      "c-score": null,
      "rating": 1.5,
      "location": {
        "latitude": 40.7732296,
        "longitude": -73.9815958
      }
    },
    {
      "id": "MA19",
      "name": "The Museum at FIT",
      "type": "museum_art",
      "address": "None None, None Manhattan",
      "internet_access": null,
      "wheelchair_accessible": null,
      "opening_hours": "Tu-Fr 12:00-20:00; Sa 10:00-17:00",
      "grid-id": 334,
      "taxi-zone": 186,
      "precinct": 10,
      "b-score": null,
      "c-score": null,
      "rating": 1.5,
      "location": {
        "latitude": 40.7466544,
        "longitude": -73.9941473
      }
    },
    {
      "id": "MA20",
      "name": "Museum of Sex",
      "type": "museum_art",
      "address": "223 5th Avenue, 10016 Manhattan",
      "internet_access": null,
      "wheelchair_accessible": "yes",
      "opening_hours": "Mo-Th, Su 10:30-22:00; Fr, Sa 10:30-23:00",
      "grid-id": 418,
      "taxi-zone": 234,
      "precinct": 13,
      "b-score": null,
      "c-score": null,
      "rating": 1.5,
      "location": {
        "latitude": 40.7440374,
        "longitude": -73.9873576
      }
    },
    {
      "id": "MA21",
      "name": "National Museum of Mathematics",
      "type": "museum_art",
      "address": "11 East 26th Street, 10010 Manhattan",
      "internet_access": "wlan",
      "wheelchair_accessible": "yes",
      "opening_hours": "Mo-Su 10:00-17:00",
      "grid-id": 418,
      "taxi-zone": 234,
      "precinct": 13,
      "b-score": null,
      "c-score": null,
      "rating": 1.5,
      "location": {
        "latitude": 40.7432428,
        "longitude": -73.9873437
      }
    },
    {
      "id": "MA22",
      "name": "Italian American Museum",
      "type": "museum_art",
      "address": "155 Mulberry Street, None Manhattan",
      "internet_access": null,
      "wheelchair_accessible": null,
      "opening_hours": null,
      "grid-id": 273,
      "taxi-zone": 144,
      "precinct": 5,
      "b-score": null,
      "c-score": null,
      "rating": 1.5,
      "location": {
        "latitude": 40.7192537,
        "longitude": -73.9974606
      }
    },
    {
      "id": "MA24",
      "name": "Gagosian",
      "type": "museum_art",
      "address": "555 West 24th Street, None Manhattan",
      "internet_access": null,
      "wheelchair_accessible": null,
      "opening_hours": "Tu-Sa 10:00-18:00",
      "grid-id": 143,
      "taxi-zone": 246,
      "precinct": 10,
      "b-score": null,
      "c-score": null,
      "rating": 1.5,
      "location": {
        "latitude": 40.7494423,
        "longitude": -74.0059445
      }
    },
    {
      "id": "MA25",
      "name": "The Met Cloisters",
      "type": "museum_art",
      "address": "99 Margaret Corbin Drive, 10040 Manhattan",
      "internet_access": null,
      "wheelchair_accessible": null,
      "opening_hours": "Th-Tu 10:00-16:30",
      "grid-id": 1443,
      "taxi-zone": 243,
      "precinct": 34,
      "b-score": null,
      "c-score": null,
      "rating": 1.5,
      "location": {
        "latitude": 40.8648684,
        "longitude": -73.9319228
      }
    },
    {
      "id": "MA26",
      "name": "Museum of Chinese in America",
      "type": "museum_art",
      "address": "215 Centre Street, 10013 Manhattan",
      "internet_access": null,
      "wheelchair_accessible": "limited",
      "opening_hours": "Tu, We, Fr-Su 11:00-18:00; Th 11:00-21:00",
      "grid-id": 234,
      "taxi-zone": 144,
      "precinct": 5,
      "b-score": null,
      "c-score": null,
      "rating": 1.5,
      "location": {
        "latitude": 40.7194172,
        "longitude": -73.9990481
      }
    },
    {
      "id": "MA27",
      "name": "ICP International Center of Photography Museum",
      "type": "museum_art",
      "address": "None None, 10012 Manhattan",
      "internet_access": null,
      "wheelchair_accessible": null,
      "opening_hours": "Tu-We, Fr-Su 10:00-18:00; Th 09:00-21:00",
      "grid-id": 347,
      "taxi-zone": 144,
      "precinct": 5,
      "b-score": null,
      "c-score": null,
      "rating": 1.5,
      "location": {
        "latitude": 40.7230882,
        "longitude": -73.9933858
      }
    },
    {
      "id": "MA28",
      "name": "Hayden Planetarium",
      "type": "museum_art",
      "address": "200 Central Park West, 10024 Manhattan",
      "internet_access": null,
      "wheelchair_accessible": "yes",
      "opening_hours": "Mo-Su 10:00-17:30",
      "grid-id": 688,
      "taxi-zone": 239,
      "precinct": 20,
      "b-score": null,
      "c-score": null,
      "rating": 1.5,
      "location": {
        "latitude": 40.7813974,
        "longitude": -73.9733215
      }
    },
    {
      "id": "MA31",
      "name": "Ground Zero Museum Workshop",
      "type": "museum_art",
      "address": "None None, 10014 Manhattan",
      "internet_access": null,
      "wheelchair_accessible": null,
      "opening_hours": "We-Su 11:00-15:00",
      "grid-id": 112,
      "taxi-zone": 158,
      "precinct": 6,
      "b-score": null,
      "c-score": null,
      "rating": 1.5,
      "location": {
        "latitude": 40.74121,
        "longitude": -74.0067195
      }
    },
    {
      "id": "MA32",
      "name": "Sugar Hill Children's Museum of Art and Story Telling",
      "type": "museum_art",
      "address": "898 Saint Nicholas Avenue, 10032 Manhattan",
      "internet_access": null,
      "wheelchair_accessible": "yes",
      "opening_hours": null,
      "grid-id": 1280,
      "taxi-zone": 116,
      "precinct": 30,
      "b-score": null,
      "c-score": null,
      "rating": 1.5,
      "location": {
        "latitude": 40.8304543,
        "longitude": -73.941171
      }
    },
    {
      "id": "MA33",
      "name": "The Studio Museum In Harlem",
      "type": "museum_art",
      "address": "144 West 125th Street, 10027 Manhattan",
      "internet_access": null,
      "wheelchair_accessible": null,
      "opening_hours": null,
      "grid-id": 1149,
      "taxi-zone": 41,
      "precinct": 28,
      "b-score": null,
      "c-score": null,
      "rating": 1.5,
      "location": {
        "latitude": 40.8084179,
        "longitude": -73.947616
      }
    },
    {
      "id": "MA34",
      "name": "The Renee and Chaim Gross Foundation",
      "type": "museum_art",
      "address": "526 Laguardia Place, 10012 Manhattan",
      "internet_access": null,
      "wheelchair_accessible": "limited",
      "opening_hours": "Th,Fr 13:00-17:00",
      "grid-id": 268,
      "taxi-zone": 114,
      "precinct": 6,
      "b-score": null,
      "c-score": null,
      "rating": 1.5,
      "location": {
        "latitude": 40.7284684,
        "longitude": -73.99882
      }
    },
    {
      "id": "MA35",
      "name": "Museum of the American Gangster",
      "type": "museum_art",
      "address": "None None, None Manhattan",
      "internet_access": null,
      "wheelchair_accessible": null,
      "opening_hours": "Tu-Su 13:00-18:00; Mo 13:00-19:00",
      "grid-id": 471,
      "taxi-zone": 79,
      "precinct": 9,
      "b-score": null,
      "c-score": null,
      "rating": 1.5,
      "location": {
        "latitude": 40.7276111,
        "longitude": -73.9858672
      }
    },
    {
      "id": "MA36",
      "name": "Mmuseumm",
      "type": "museum_art",
      "address": "4 Cortlandt Alley, 10013 Manhattan",
      "internet_access": null,
      "wheelchair_accessible": "yes",
      "opening_hours": "Sa-Su 12:00-18:00 open \"Museum\" || 00:00-24:00 open \"Viewing windows\"",
      "grid-id": 197,
      "taxi-zone": 231,
      "precinct": 5,
      "b-score": null,
      "c-score": null,
      "rating": 1.5,
      "location": {
        "latitude": 40.7173656,
        "longitude": -74.0028203
      }
    },
    {
      "id": "MA37",
      "name": "Center for Architecture",
      "type": "museum_art",
      "address": "546 LaGuardia Place, None Manhattan",
      "internet_access": null,
      "wheelchair_accessible": "limited",
      "opening_hours": null,
      "grid-id": 268,
      "taxi-zone": 114,
      "precinct": 6,
      "b-score": null,
      "c-score": null,
      "rating": 1.5,
      "location": {
        "latitude": 40.72873,
        "longitude": -73.9985805
      }
    },
    {
      "id": "MA38",
      "name": "Museum of Illusions",
      "type": "museum_art",
      "address": "77 8th Avenue, None Manhattan",
      "internet_access": null,
      "wheelchair_accessible": null,
      "opening_hours": null,
      "grid-id": 185,
      "taxi-zone": 249,
      "precinct": 6,
      "b-score": null,
      "c-score": null,
      "rating": 1.5,
      "location": {
        "latitude": 40.7396591,
        "longitude": -74.0028554
      }
    },
    {
      "id": "MA39",
      "name": "Museum of Reclaimed Urban Space",
      "type": "museum_art",
      "address": "155 Avenue C, None Manhattan",
      "internet_access": null,
      "wheelchair_accessible": "no",
      "opening_hours": "Tu,Th-Su 11:00-19:00",
      "grid-id": 616,
      "taxi-zone": 4,
      "precinct": 9,
      "b-score": null,
      "c-score": null,
      "rating": 1.5,
      "location": {
        "latitude": 40.7257313,
        "longitude": -73.9778791
      }
    },
    {
      "id": "MA40",
      "name": "The AKC Museum of the Dog",
      "type": "museum_art",
      "address": "None None, None Manhattan",
      "internet_access": null,
      "wheelchair_accessible": null,
      "opening_hours": null,
      "grid-id": 602,
      "taxi-zone": 170,
      "precinct": 14,
      "b-score": null,
      "c-score": null,
      "rating": 1.5,
      "location": {
        "latitude": 40.7506893,
        "longitude": -73.9776714
      }
    },
    {
      "id": "MA42",
      "name": "Museum of Ice Cream",
      "type": "museum_art",
      "address": "558 Broadway, None Manhattan",
      "internet_access": null,
      "wheelchair_accessible": null,
      "opening_hours": "Mo, We, Th, Su 10:00-19:00; Fr, Sa 10:00-20:30",
      "grid-id": 271,
      "taxi-zone": 144,
      "precinct": 5,
      "b-score": null,
      "c-score": null,
      "rating": 1.5,
      "location": {
        "latitude": 40.7238654,
        "longitude": -73.9979055
      }
    },
    {
      "id": "MA43",
      "name": "Natonial Jazz Museum in Harlem",
      "type": "museum_art",
      "address": "58 West 129th Street, 10027 Manhattan",
      "internet_access": null,
      "wheelchair_accessible": null,
      "opening_hours": null,
      "grid-id": 1243,
      "taxi-zone": 42,
      "precinct": 32,
      "b-score": null,
      "c-score": null,
      "rating": 1.5,
      "location": {
        "latitude": 40.8099499,
        "longitude": -73.9430899
      }
    },
    {
      "id": "MA44",
      "name": "Malcolm X & Dr. Betty Shabazz Memorial and Educational Center",
      "type": "museum_art",
      "address": "3940 Broadway, 10032 Manhattan",
      "internet_access": null,
      "wheelchair_accessible": null,
      "opening_hours": null,
      "grid-id": 1275,
      "taxi-zone": 244,
      "precinct": 33,
      "b-score": null,
      "c-score": null,
      "rating": 1.5,
      "location": {
        "latitude": 40.8393577,
        "longitude": -73.9406753
      }
    },
    {
      "id": "MA48",
      "name": "NYC Barber Shop Museum",
      "type": "museum_art",
      "address": "290 Columbus Avenue, 10023 Manhattan",
      "internet_access": null,
      "wheelchair_accessible": null,
      "opening_hours": "Tu-Fr 10:00-19:00; Sa 10:00-18:00; Su 11:00-17:00",
      "grid-id": 586,
      "taxi-zone": 142,
      "precinct": 20,
      "b-score": null,
      "c-score": null,
      "rating": 1.5,
      "location": {
        "latitude": 40.7786086,
        "longitude": -73.9781357
      }
    },
    {
      "id": "MA51",
      "name": "Richard Gilder Center for Science, Education, and Innovation",
      "type": "museum_art",
      "address": "None None, None Manhattan",
      "internet_access": null,
      "wheelchair_accessible": null,
      "opening_hours": "Mo-Su 10:00-17:30; Nov 23: off; Dec 25: off",
      "grid-id": 688,
      "taxi-zone": 239,
      "precinct": 20,
      "b-score": null,
      "c-score": null,
      "rating": 1.5,
      "location": {
        "latitude": 40.7815797,
        "longitude": -73.9746411
      }
    },
    {
      "id": "MA52",
      "name": "Rose Center for Earth and Space",
      "type": "museum_art",
      "address": "None None, None Manhattan",
      "internet_access": null,
      "wheelchair_accessible": null,
      "opening_hours": null,
      "grid-id": 688,
      "taxi-zone": 239,
      "precinct": 20,
      "b-score": null,
      "c-score": null,
      "rating": 1.5,
      "location": {
        "latitude": 40.7816493,
        "longitude": -73.9731563
      }
    },
    {
      "id": "MA53",
      "name": "Paula Cooper Gallery",
      "type": "museum_art",
      "address": "525 West 21st Street, 10011 Manhattan",
      "internet_access": null,
      "wheelchair_accessible": null,
      "opening_hours": null,
      "grid-id": 109,
      "taxi-zone": 246,
      "precinct": 10,
      "b-score": null,
      "c-score": null,
      "rating": 1.5,
      "location": {
        "latitude": 40.7470923,
        "longitude": -74.0064354
      }
    },
    {
      "id": "MA55",
      "name": "Powers Lowenfels Gallery",
      "type": "museum_art",
      "address": "53 Stanton Street, 10002 Manhattan",
      "internet_access": null,
      "wheelchair_accessible": null,
      "opening_hours": "Th-Su 12:00-18:00",
      "grid-id": 388,
      "taxi-zone": 148,
      "precinct": 5,
      "b-score": null,
      "c-score": null,
      "rating": 1.5,
      "location": {
        "latitude": 40.7219487,
        "longitude": -73.990434
      }
    },
    {
      "id": "MA56",
      "name": "Krause Gallery",
      "type": "museum_art",
      "address": "149 Allen Street, 10002 Manhattan",
      "internet_access": null,
      "wheelchair_accessible": null,
      "opening_hours": "We-Su 12:00-18:00",
      "grid-id": 431,
      "taxi-zone": 148,
      "precinct": 7,
      "b-score": null,
      "c-score": null,
      "rating": 1.5,
      "location": {
        "latitude": 40.720719,
        "longitude": -73.9892808
      }
    },
    {
      "id": "MA57",
      "name": "Andrew Kreps Gallery",
      "type": "museum_art",
      "address": "22 Cortlandt Alley, 10013 Manhattan",
      "internet_access": null,
      "wheelchair_accessible": null,
      "opening_hours": "Tu-Sa 10:00-18:00",
      "grid-id": 197,
      "taxi-zone": 231,
      "precinct": 5,
      "b-score": null,
      "c-score": null,
      "rating": 1.5,
      "location": {
        "latitude": 40.7181761,
        "longitude": -74.0020133
      }
    },
    {
      "id": "MA59",
      "name": "Magenta Plains",
      "type": "museum_art",
      "address": "94 Allen Street, 10002 Manhattan",
      "internet_access": null,
      "wheelchair_accessible": null,
      "opening_hours": "We-Su 11:00-18:00",
      "grid-id": 390,
      "taxi-zone": 148,
      "precinct": 7,
      "b-score": null,
      "c-score": null,
      "rating": 1.5,
      "location": {
        "latitude": 40.7185164,
        "longitude": -73.9904291
      }
    },
    {
      "id": "MA60",
      "name": "The EVAC",
      "type": "museum_art",
      "address": "215 1st Avenue, 10003 Manhattan",
      "internet_access": null,
      "wheelchair_accessible": null,
      "opening_hours": null,
      "grid-id": 515,
      "taxi-zone": 79,
      "precinct": 9,
      "b-score": null,
      "c-score": null,
      "rating": 1.5,
      "location": {
        "latitude": 40.7306017,
        "longitude": -73.9833365
      }
    },
    {
      "id": "MA61",
      "name": "Art Clinic",
      "type": "museum_art",
      "address": "106 Ridge Street, 10002 Manhattan",
      "internet_access": null,
      "wheelchair_accessible": null,
      "opening_hours": null,
      "grid-id": 522,
      "taxi-zone": 232,
      "precinct": 7,
      "b-score": null,
      "c-score": null,
      "rating": 1.5,
      "location": {
        "latitude": 40.7187633,
        "longitude": -73.9831736
      }
    },
    {
      "id": "MA62",
      "name": "Hashimoto Contemporary",
      "type": "museum_art",
      "address": "210 Rivington Street, 10002 Manhattan",
      "internet_access": null,
      "wheelchair_accessible": null,
      "opening_hours": null,
      "grid-id": 522,
      "taxi-zone": 232,
      "precinct": 7,
      "b-score": null,
      "c-score": null,
      "rating": 1.5,
      "location": {
        "latitude": 40.7184451,
        "longitude": -73.9826995
      }
    },
    {
      "id": "MA64",
      "name": "Salmagundi Club",
      "type": "museum_art",
      "address": "None None, None Manhattan",
      "internet_access": null,
      "wheelchair_accessible": null,
      "opening_hours": null,
      "grid-id": 302,
      "taxi-zone": 113,
      "precinct": 6,
      "b-score": null,
      "c-score": null,
      "rating": 1.5,
      "location": {
        "latitude": 40.7343016,
        "longitude": -73.9945529
      }
    },
    {
      "id": "MA65",
      "name": "Gladstone Gallery",
      "type": "museum_art",
      "address": "515 West 24th Street, 10011 Manhattan",
      "internet_access": null,
      "wheelchair_accessible": null,
      "opening_hours": "Tu-sa 10:00-18:00",
      "grid-id": 143,
      "taxi-zone": 246,
      "precinct": 10,
      "b-score": null,
      "c-score": null,
      "rating": 1.5,
      "location": {
        "latitude": 40.7489761,
        "longitude": -74.004588
      }
    },
    {
      "id": "MA66",
      "name": "Voltz Clarke Gallery",
      "type": "museum_art",
      "address": "None None, None Manhattan",
      "internet_access": null,
      "wheelchair_accessible": null,
      "opening_hours": "Mo-Fr 10:00-18:00; Sa 12:00-17:00||Su \"by appointment\"",
      "grid-id": 348,
      "taxi-zone": 148,
      "precinct": 5,
      "b-score": null,
      "c-score": null,
      "rating": 1.5,
      "location": {
        "latitude": 40.7220357,
        "longitude": -73.9920403
      }
    },
    {
      "id": "MA67",
      "name": "Rachel Uffner",
      "type": "museum_art",
      "address": "170 Suffolk Street, 10002 Manhattan",
      "internet_access": null,
      "wheelchair_accessible": null,
      "opening_hours": null,
      "grid-id": 474,
      "taxi-zone": 148,
      "precinct": 7,
      "b-score": null,
      "c-score": null,
      "rating": 1.5,
      "location": {
        "latitude": 40.7209311,
        "longitude": -73.984974
      }
    },
    {
      "id": "MA68",
      "name": "Morgan Presents",
      "type": "museum_art",
      "address": "155 Suffolk Street, 10002 Manhattan",
      "internet_access": null,
      "wheelchair_accessible": null,
      "opening_hours": "Tu-Sa 10:00-18:00",
      "grid-id": 475,
      "taxi-zone": 148,
      "precinct": 7,
      "b-score": null,
      "c-score": null,
      "rating": 1.5,
      "location": {
        "latitude": 40.7208065,
        "longitude": -73.9852723
      }
    },
    {
      "id": "MA71",
      "name": "Westwood Gallery",
      "type": "museum_art",
      "address": "261 Bowery, 10012 Manhattan",
      "internet_access": null,
      "wheelchair_accessible": null,
      "opening_hours": "Tu-Sa 10:00-18:00",
      "grid-id": 347,
      "taxi-zone": 144,
      "precinct": 5,
      "b-score": null,
      "c-score": null,
      "rating": 1.5,
      "location": {
        "latitude": 40.7233254,
        "longitude": -73.9931761
      }
    },
    {
      "id": "MA72",
      "name": "Broadway Mall Gallery",
      "type": "museum_art",
      "address": "None None, None Manhattan",
      "internet_access": null,
      "wheelchair_accessible": null,
      "opening_hours": null,
      "grid-id": 732,
      "taxi-zone": 238,
      "precinct": 24,
      "b-score": null,
      "c-score": null,
      "rating": 1.5,
      "location": {
        "latitude": 40.7949144,
        "longitude": -73.9715855
      }
    },
    {
      "id": "MA73",
      "name": "Asian Arts",
      "type": "museum_art",
      "address": "579 West 215th Street, None Manhattan",
      "internet_access": null,
      "wheelchair_accessible": null,
      "opening_hours": null,
      "grid-id": 1543,
      "taxi-zone": 127,
      "precinct": 34,
      "b-score": null,
      "c-score": null,
      "rating": 1.5,
      "location": {
        "latitude": 40.8719113,
        "longitude": -73.9188055
      }
    },
    {
      "id": "MA74",
      "name": "Miriam and Ira D. Wallach Art Gallery",
      "type": "museum_art",
      "address": "615 West 129th Street, 10027 Manhattan",
      "internet_access": null,
      "wheelchair_accessible": "yes",
      "opening_hours": "We-Fr 12:00-20:00; Sa-Su 12:00-18:00",
      "grid-id": 931,
      "taxi-zone": 152,
      "precinct": 26,
      "b-score": null,
      "c-score": null,
      "rating": 1.5,
      "location": {
        "latitude": 40.8172422,
        "longitude": -73.9586445
      }
    },
    {
      "id": "MA75",
      "name": "Eric Firestone Gallery",
      "type": "museum_art",
      "address": "40 Great Jones Street, 10012 Manhattan",
      "internet_access": null,
      "wheelchair_accessible": null,
      "opening_hours": null,
      "grid-id": 345,
      "taxi-zone": 114,
      "precinct": 9,
      "b-score": null,
      "c-score": null,
      "rating": 1.5,
      "location": {
        "latitude": 40.7269555,
        "longitude": -73.9926816
      }
    },
    {
      "id": "MA77",
      "name": "Z\u00fcrcher Studio",
      "type": "museum_art",
      "address": "33 Bleecker Street, 10012 Manhattan",
      "internet_access": null,
      "wheelchair_accessible": null,
      "opening_hours": "Tu-Sa 12:00-18:00; Su 14:00-18:00",
      "grid-id": 346,
      "taxi-zone": 114,
      "precinct": 9,
      "b-score": null,
      "c-score": null,
      "rating": 1.5,
      "location": {
        "latitude": 40.7257629,
        "longitude": -73.9937321
      }
    },
    {
      "id": "MA78",
      "name": "Theresa Byrnes",
      "type": "museum_art",
      "address": "616 East 9th Street, None Manhattan",
      "internet_access": null,
      "wheelchair_accessible": null,
      "opening_hours": "Tu 13:30-17:00; Th 14:00-18:00; Fr 14:00-19:00; Sa 13:00-19:00; Su 14:00-17:00",
      "grid-id": 616,
      "taxi-zone": 4,
      "precinct": 9,
      "b-score": null,
      "c-score": null,
      "rating": 1.5,
      "location": {
        "latitude": 40.7258135,
        "longitude": -73.9795215
      }
    },
    {
      "id": "MA79",
      "name": "SLEEPCENTER",
      "type": "museum_art",
      "address": "9 Monroe Street, 10002 Manhattan",
      "internet_access": null,
      "wheelchair_accessible": null,
      "opening_hours": null,
      "grid-id": 315,
      "taxi-zone": 45,
      "precinct": 5,
      "b-score": null,
      "c-score": null,
      "rating": 1.5,
      "location": {
        "latitude": 40.7117446,
        "longitude": -73.9961249
      }
    },
    {
      "id": "MA80",
      "name": "Essex Flowers Gallery",
      "type": "museum_art",
      "address": "19 Monroe Street, 10002 Manhattan",
      "internet_access": null,
      "wheelchair_accessible": null,
      "opening_hours": null,
      "grid-id": 315,
      "taxi-zone": 45,
      "precinct": 5,
      "b-score": null,
      "c-score": null,
      "rating": 1.5,
      "location": {
        "latitude": 40.7117466,
        "longitude": -73.9956636
      }
    },
    {
      "id": "MA81",
      "name": "FIERMAN",
      "type": "museum_art",
      "address": "127 Henry Street, 10002 Manhattan",
      "internet_access": null,
      "wheelchair_accessible": null,
      "opening_hours": "We-Su 12:00-18:00",
      "grid-id": 393,
      "taxi-zone": 232,
      "precinct": 7,
      "b-score": null,
      "c-score": null,
      "rating": 1.5,
      "location": {
        "latitude": 40.713402,
        "longitude": -73.9912954
      }
    },
    {
      "id": "MA82",
      "name": "Con Artist Collective",
      "type": "museum_art",
      "address": "119 Ludlow Street, 10002 Manhattan",
      "internet_access": null,
      "wheelchair_accessible": null,
      "opening_hours": "Mo-Sa 11:00-19:00",
      "grid-id": 431,
      "taxi-zone": 148,
      "precinct": 7,
      "b-score": null,
      "c-score": null,
      "rating": 1.5,
      "location": {
        "latitude": 40.7196295,
        "longitude": -73.9887194
      }
    },
    {
      "id": "MA83",
      "name": "Perrotin New York",
      "type": "museum_art",
      "address": "130 Orchard Street, 10002 Manhattan",
      "internet_access": null,
      "wheelchair_accessible": null,
      "opening_hours": "Tu-Sa 10:00-18:00",
      "grid-id": 431,
      "taxi-zone": 148,
      "precinct": 7,
      "b-score": null,
      "c-score": null,
      "rating": 1.5,
      "location": {
        "latitude": 40.7196517,
        "longitude": -73.9892959
      }
    },
    {
      "id": "MA84",
      "name": "bitforms gallery",
      "type": "museum_art",
      "address": "131 Allen Street, 10002 Manhattan",
      "internet_access": null,
      "wheelchair_accessible": null,
      "opening_hours": "We-Sa 11:00-18:00; Su 12:00-18:00",
      "grid-id": 389,
      "taxi-zone": 148,
      "precinct": 5,
      "b-score": null,
      "c-score": null,
      "rating": 1.5,
      "location": {
        "latitude": 40.7200826,
        "longitude": -73.990232
      }
    },
    {
      "id": "MA85",
      "name": "James Fuentes LLC",
      "type": "museum_art",
      "address": "55 Delancey Street, None Manhattan",
      "internet_access": null,
      "wheelchair_accessible": "yes",
      "opening_hours": "We-Su 10:00-18:00",
      "grid-id": 389,
      "taxi-zone": 148,
      "precinct": 5,
      "b-score": null,
      "c-score": null,
      "rating": 1.5,
      "location": {
        "latitude": 40.7191881,
        "longitude": -73.9911739
      }
    },
    {
      "id": "MA87",
      "name": "Reena Spauldings Fine Art",
      "type": "museum_art",
      "address": "165 East Broadway, None Manhattan",
      "internet_access": null,
      "wheelchair_accessible": null,
      "opening_hours": "Th-Su 12:00-18:00",
      "grid-id": 392,
      "taxi-zone": 232,
      "precinct": 7,
      "b-score": null,
      "c-score": null,
      "rating": 1.5,
      "location": {
        "latitude": 40.7139131,
        "longitude": -73.9899544
      }
    },
    {
      "id": "MA88",
      "name": "HG Contemporary",
      "type": "museum_art",
      "address": "527 West 23rd Street, 10011 Manhattan",
      "internet_access": null,
      "wheelchair_accessible": null,
      "opening_hours": "Mo-Sa 11:00-18:00",
      "grid-id": 143,
      "taxi-zone": 246,
      "precinct": 10,
      "b-score": null,
      "c-score": null,
      "rating": 1.5,
      "location": {
        "latitude": 40.748353,
        "longitude": -74.0052494
      }
    },
    {
      "id": "MA89",
      "name": "186f Kepler",
      "type": "museum_art",
      "address": "171 Canal Street, None Manhattan",
      "internet_access": null,
      "wheelchair_accessible": null,
      "opening_hours": null,
      "grid-id": 275,
      "taxi-zone": 144,
      "precinct": 5,
      "b-score": null,
      "c-score": null,
      "rating": 1.5,
      "location": {
        "latitude": 40.7167838,
        "longitude": -73.9971521
      }
    },
    {
      "id": "MA90",
      "name": "Lazy Susan Gallery",
      "type": "museum_art",
      "address": "191 Henry Street, 10002 Manhattan",
      "internet_access": null,
      "wheelchair_accessible": null,
      "opening_hours": "Mo-Su 12:00-18:00",
      "grid-id": 434,
      "taxi-zone": 232,
      "precinct": 7,
      "b-score": null,
      "c-score": null,
      "rating": 1.5,
      "location": {
        "latitude": 40.7137046,
        "longitude": -73.9879511
      }
    },
    {
      "id": "MA91",
      "name": "Chinatown Soup",
      "type": "museum_art",
      "address": "16B Orchard Street, None Manhattan",
      "internet_access": null,
      "wheelchair_accessible": null,
      "opening_hours": "Mo-Sa 12:00-19:00",
      "grid-id": 392,
      "taxi-zone": 148,
      "precinct": 7,
      "b-score": null,
      "c-score": null,
      "rating": 1.5,
      "location": {
        "latitude": 40.7151986,
        "longitude": -73.9916176
      }
    },
    {
      "id": "MA92",
      "name": "Vacation",
      "type": "museum_art",
      "address": "24 Orchard Street, 10002 Manhattan",
      "internet_access": null,
      "wheelchair_accessible": null,
      "opening_hours": null,
      "grid-id": 391,
      "taxi-zone": 148,
      "precinct": 7,
      "b-score": null,
      "c-score": null,
      "rating": 1.5,
      "location": {
        "latitude": 40.7154412,
        "longitude": -73.991419
      }
    },
    {
      "id": "MA93",
      "name": "Empirical Nonsense",
      "type": "museum_art",
      "address": "87 Rivington Street, None Manhattan",
      "internet_access": null,
      "wheelchair_accessible": null,
      "opening_hours": "We-Sa 12:00-18:00",
      "grid-id": 431,
      "taxi-zone": 148,
      "precinct": 7,
      "b-score": null,
      "c-score": null,
      "rating": 1.5,
      "location": {
        "latitude": 40.7201441,
        "longitude": -73.9889614
      }
    },
    {
      "id": "MA94",
      "name": "Karma Gallery",
      "type": "museum_art",
      "address": "188 East 2nd Street, None Manhattan",
      "internet_access": null,
      "wheelchair_accessible": null,
      "opening_hours": "Tu-Sa 10:00-18:00",
      "grid-id": 520,
      "taxi-zone": 79,
      "precinct": 9,
      "b-score": null,
      "c-score": null,
      "rating": 1.5,
      "location": {
        "latitude": 40.7224564,
        "longitude": -73.9841125
      }
    },
    {
      "id": "MA95",
      "name": "Faction Art Projects",
      "type": "museum_art",
      "address": "2602 Frederick Douglass Boulevard, 10030 Manhattan",
      "internet_access": null,
      "wheelchair_accessible": null,
      "opening_hours": null,
      "grid-id": 1190,
      "taxi-zone": 42,
      "precinct": 32,
      "b-score": null,
      "c-score": null,
      "rating": 1.5,
      "location": {
        "latitude": 40.8188292,
        "longitude": -73.9446254
      }
    },
    {
      "id": "MA96",
      "name": "Sixth Street Haunted House",
      "type": "museum_art",
      "address": "516 East 6th Street, None Manhattan",
      "internet_access": null,
      "wheelchair_accessible": null,
      "opening_hours": "Sa,Su 14:00-19:00",
      "grid-id": 518,
      "taxi-zone": 79,
      "precinct": 9,
      "b-score": null,
      "c-score": null,
      "rating": 1.5,
      "location": {
        "latitude": 40.7249615,
        "longitude": -73.9830825
      }
    },
    {
      "id": "MA97",
      "name": "David Zwirner",
      "type": "museum_art",
      "address": "525 West 19th Street, 10011 Manhattan",
      "internet_access": null,
      "wheelchair_accessible": null,
      "opening_hours": null,
      "grid-id": 110,
      "taxi-zone": 246,
      "precinct": 10,
      "b-score": null,
      "c-score": null,
      "rating": 1.5,
      "location": {
        "latitude": 40.745807,
        "longitude": -74.0070327
      }
    },
    {
      "id": "MA98",
      "name": "La MaMa Galleria",
      "type": "museum_art",
      "address": "47 Great Jones Street, 10012 Manhattan",
      "internet_access": null,
      "wheelchair_accessible": null,
      "opening_hours": "Th-Su 13:00-19:00",
      "grid-id": 345,
      "taxi-zone": 114,
      "precinct": 9,
      "b-score": null,
      "c-score": null,
      "rating": 1.5,
      "location": {
        "latitude": 40.7265986,
        "longitude": -73.992545
      }
    },
    {
      "id": "MA99",
      "name": "Derek Eller Gallery",
      "type": "museum_art",
      "address": "None None, None Manhattan",
      "internet_access": null,
      "wheelchair_accessible": null,
      "opening_hours": "Sep-Jun: We-Su 11:00-18:00 \"Tu by appointment\"; Jul-Aug: Mo-Fr 11:00-18:00",
      "grid-id": 350,
      "taxi-zone": 148,
      "precinct": 5,
      "b-score": null,
      "c-score": null,
      "rating": 1.5,
      "location": {
        "latitude": 40.7188203,
        "longitude": -73.992177
      }
    },
    {
      "id": "MA101",
      "name": "Anya & Andrew Shiva Gallery",
      "type": "museum_art",
      "address": "860 11th Avenue, 10019 Manhattan",
      "internet_access": "no",
      "wheelchair_accessible": "yes",
      "opening_hours": "Mo-Fr 10:00-18:00",
      "grid-id": 360,
      "taxi-zone": 143,
      "precinct": 18,
      "b-score": null,
      "c-score": null,
      "rating": 1.5,
      "location": {
        "latitude": 40.771366,
        "longitude": -73.9902725
      }
    },
    {
      "id": "MA102",
      "name": "Eden Fine Art",
      "type": "museum_art",
      "address": "437 Madison Avenue, 10017 Manhattan",
      "internet_access": null,
      "wheelchair_accessible": null,
      "opening_hours": null,
      "grid-id": 649,
      "taxi-zone": 161,
      "precinct": 18,
      "b-score": null,
      "c-score": null,
      "rating": 1.5,
      "location": {
        "latitude": 40.7576183,
        "longitude": -73.9755331
      }
    },
    {
      "id": "MA104",
      "name": "303 Gallery",
      "type": "museum_art",
      "address": "555 West 21st Street, 10011 Manhattan",
      "internet_access": null,
      "wheelchair_accessible": null,
      "opening_hours": "Tu-Sa 11:00-17:00",
      "grid-id": 109,
      "taxi-zone": 246,
      "precinct": 10,
      "b-score": null,
      "c-score": null,
      "rating": 1.5,
      "location": {
        "latitude": 40.7475429,
        "longitude": -74.0075391
      }
    },
    {
      "id": "MA105",
      "name": "Amanita",
      "type": "museum_art",
      "address": "313 Bowery, 10003 Manhattan",
      "internet_access": null,
      "wheelchair_accessible": null,
      "opening_hours": null,
      "grid-id": 346,
      "taxi-zone": 79,
      "precinct": 9,
      "b-score": null,
      "c-score": null,
      "rating": 1.5,
      "location": {
        "latitude": 40.7251309,
        "longitude": -73.9919779
      }
    },
    {
      "id": "MA107",
      "name": "Martos Gallery",
      "type": "museum_art",
      "address": "None None, None Manhattan",
      "internet_access": null,
      "wheelchair_accessible": null,
      "opening_hours": null,
      "grid-id": 275,
      "taxi-zone": 144,
      "precinct": 5,
      "b-score": null,
      "c-score": null,
      "rating": 1.5,
      "location": {
        "latitude": 40.7170446,
        "longitude": -73.9968271
      }
    },
    {
      "id": "MA108",
      "name": "Space 776",
      "type": "museum_art",
      "address": "37 Clinton Street, 10002 Manhattan",
      "internet_access": null,
      "wheelchair_accessible": null,
      "opening_hours": null,
      "grid-id": 521,
      "taxi-zone": 148,
      "precinct": 7,
      "b-score": null,
      "c-score": null,
      "rating": 1.5,
      "location": {
        "latitude": 40.7200219,
        "longitude": -73.9847106
      }
    },
    {
      "id": "MA110",
      "name": "Miguel Abreu Gallery",
      "type": "museum_art",
      "address": "36 Orchard Street, 10002 Manhattan",
      "internet_access": null,
      "wheelchair_accessible": null,
      "opening_hours": "We-Su 10:00-18:00",
      "grid-id": 391,
      "taxi-zone": 148,
      "precinct": 7,
      "b-score": null,
      "c-score": null,
      "rating": 1.5,
      "location": {
        "latitude": 40.7158321,
        "longitude": -73.9912916
      }
    },
    {
      "id": "MA111",
      "name": "Pace Gallery",
      "type": "museum_art",
      "address": "540 West 25th Street, 10001 Manhattan",
      "internet_access": null,
      "wheelchair_accessible": null,
      "opening_hours": "Tu-Sa 10:00-18:00",
      "grid-id": 143,
      "taxi-zone": 246,
      "precinct": 10,
      "b-score": null,
      "c-score": null,
      "rating": 1.5,
      "location": {
        "latitude": 40.7495759,
        "longitude": -74.0049685
      }
    },
    {
      "id": "MA112",
      "name": "The 4th Street Photo Gallery",
      "type": "museum_art",
      "address": "None None, None Manhattan",
      "internet_access": null,
      "wheelchair_accessible": null,
      "opening_hours": "Tu-Th 14:00-20:00; Fr-Sa 15:00-22:00; Su 14:00-20:00",
      "grid-id": 385,
      "taxi-zone": 79,
      "precinct": 9,
      "b-score": null,
      "c-score": null,
      "rating": 1.5,
      "location": {
        "latitude": 40.7267758,
        "longitude": -73.9905701
      }
    },
    {
      "id": "MA113",
      "name": "Arsenal Contemporary Art",
      "type": "museum_art",
      "address": "214 Bowery, 10012 Manhattan",
      "internet_access": null,
      "wheelchair_accessible": null,
      "opening_hours": null,
      "grid-id": 348,
      "taxi-zone": 144,
      "precinct": 5,
      "b-score": null,
      "c-score": null,
      "rating": 1.5,
      "location": {
        "latitude": 40.7218041,
        "longitude": -73.9937691
      }
    },
    {
      "id": "MA114",
      "name": "The Hole",
      "type": "museum_art",
      "address": "None None, None Manhattan",
      "internet_access": null,
      "wheelchair_accessible": null,
      "opening_hours": "We-Su 12:00-19:00",
      "grid-id": 346,
      "taxi-zone": 114,
      "precinct": 9,
      "b-score": null,
      "c-score": null,
      "rating": 1.5,
      "location": {
        "latitude": 40.7250551,
        "longitude": -73.9925494
      }
    },
    {
      "id": "MA115",
      "name": "Holographic Studios",
      "type": "museum_art",
      "address": "None None, None Manhattan",
      "internet_access": null,
      "wheelchair_accessible": null,
      "opening_hours": "Mo-Fr 14:00-18:00",
      "grid-id": 558,
      "taxi-zone": 137,
      "precinct": 13,
      "b-score": null,
      "c-score": null,
      "rating": 1.5,
      "location": {
        "latitude": 40.7399127,
        "longitude": -73.9800915
      }
    },
    {
      "id": "MA116",
      "name": "Woodward Gallery",
      "type": "museum_art",
      "address": "132A Eldridge Street, 10002 Manhattan",
      "internet_access": null,
      "wheelchair_accessible": null,
      "opening_hours": null,
      "grid-id": 390,
      "taxi-zone": 148,
      "precinct": 5,
      "b-score": null,
      "c-score": null,
      "rating": 1.5,
      "location": {
        "latitude": 40.7188556,
        "longitude": -73.9914924
      }
    },
    {
      "id": "MA117",
      "name": "Spencer Brownstone Gallery",
      "type": "museum_art",
      "address": "170-A Suffolk Street, 10002 Manhattan",
      "internet_access": null,
      "wheelchair_accessible": null,
      "opening_hours": null,
      "grid-id": 474,
      "taxi-zone": 148,
      "precinct": 7,
      "b-score": null,
      "c-score": null,
      "rating": 1.5,
      "location": {
        "latitude": 40.7208764,
        "longitude": -73.9850036
      }
    },
    {
      "id": "MA118",
      "name": "trotter&sholer",
      "type": "museum_art",
      "address": "168 Suffolk Street, 10002 Manhattan",
      "internet_access": null,
      "wheelchair_accessible": null,
      "opening_hours": null,
      "grid-id": 475,
      "taxi-zone": 148,
      "precinct": 7,
      "b-score": null,
      "c-score": null,
      "rating": 1.5,
      "location": {
        "latitude": 40.7208132,
        "longitude": -73.9850348
      }
    },
    {
      "id": "MA119",
      "name": "Fortnight Institute",
      "type": "museum_art",
      "address": "None None, None Manhattan",
      "internet_access": null,
      "wheelchair_accessible": null,
      "opening_hours": null,
      "grid-id": 386,
      "taxi-zone": 79,
      "precinct": 9,
      "b-score": null,
      "c-score": null,
      "rating": 1.5,
      "location": {
        "latitude": 40.7259794,
        "longitude": -73.9905535
      }
    },
    {
      "id": "MA120",
      "name": "MARCH",
      "type": "museum_art",
      "address": "64 Avenue A, 10009 Manhattan",
      "internet_access": null,
      "wheelchair_accessible": null,
      "opening_hours": "Tu-Sa 11:00-18:00",
      "grid-id": 519,
      "taxi-zone": 79,
      "precinct": 9,
      "b-score": null,
      "c-score": null,
      "rating": 1.5,
      "location": {
        "latitude": 40.7244007,
        "longitude": -73.9845324
      }
    },
    {
      "id": "MA122",
      "name": "Nohra Haime Gallery",
      "type": "museum_art",
      "address": "500A West 21st Street, 10011 Manhattan",
      "internet_access": null,
      "wheelchair_accessible": null,
      "opening_hours": "Tu-Sa 10:00-18:00",
      "grid-id": 144,
      "taxi-zone": 246,
      "precinct": 10,
      "b-score": null,
      "c-score": null,
      "rating": 1.5,
      "location": {
        "latitude": 40.7464281,
        "longitude": -74.0054994
      }
    },
    {
      "id": "MA124",
      "name": "Pop International Galleries",
      "type": "museum_art",
      "address": "None None, None Manhattan",
      "internet_access": null,
      "wheelchair_accessible": null,
      "opening_hours": "Mo-Sa 11:00-18:00",
      "grid-id": 348,
      "taxi-zone": 148,
      "precinct": 5,
      "b-score": null,
      "c-score": null,
      "rating": 1.5,
      "location": {
        "latitude": 40.7208659,
        "longitude": -73.9935566
      }
    },
    {
      "id": "MA125",
      "name": "SFA Gallery",
      "type": "museum_art",
      "address": "None None, None Manhattan",
      "internet_access": null,
      "wheelchair_accessible": null,
      "opening_hours": null,
      "grid-id": 349,
      "taxi-zone": 148,
      "precinct": 5,
      "b-score": null,
      "c-score": null,
      "rating": 1.5,
      "location": {
        "latitude": 40.7194437,
        "longitude": -73.9933697
      }
    },
    {
      "id": "MA126",
      "name": "Fountain Gallery",
      "type": "museum_art",
      "address": "None None, None Manhattan",
      "internet_access": null,
      "wheelchair_accessible": null,
      "opening_hours": null,
      "grid-id": 366,
      "taxi-zone": 48,
      "precinct": 18,
      "b-score": null,
      "c-score": null,
      "rating": 1.5,
      "location": {
        "latitude": 40.7622461,
        "longitude": -73.989593
      }
    },
    {
      "id": "MA129",
      "name": "Moshava Art",
      "type": "museum_art",
      "address": "None None, None Manhattan",
      "internet_access": null,
      "wheelchair_accessible": null,
      "opening_hours": null,
      "grid-id": 266,
      "taxi-zone": 113,
      "precinct": 6,
      "b-score": null,
      "c-score": null,
      "rating": 1.5,
      "location": {
        "latitude": 40.7332901,
        "longitude": -73.9984234
      }
    },
    {
      "id": "MA131",
      "name": "Mitchell-Innes & Nash Art Gallery",
      "type": "museum_art",
      "address": "534 West 26th Street, 10001 Manhattan",
      "internet_access": null,
      "wheelchair_accessible": null,
      "opening_hours": "Tu-Sa 10:00-18:00",
      "grid-id": 142,
      "taxi-zone": 246,
      "precinct": 10,
      "b-score": null,
      "c-score": null,
      "rating": 1.5,
      "location": {
        "latitude": 40.7501321,
        "longitude": -74.0044964
      }
    },
    {
      "id": "MA132",
      "name": "Rick Wester Fine Art",
      "type": "museum_art",
      "address": "526 West 26th Street, 10001 Manhattan",
      "internet_access": null,
      "wheelchair_accessible": null,
      "opening_hours": "We-Sa 11:00-18:00",
      "grid-id": 142,
      "taxi-zone": 246,
      "precinct": 10,
      "b-score": null,
      "c-score": null,
      "rating": 1.5,
      "location": {
        "latitude": 40.7500174,
        "longitude": -74.0041806
      }
    },
    {
      "id": "MA133",
      "name": "Galerie Lelong & Co.",
      "type": "museum_art",
      "address": "528 West 26th Street, 10001 Manhattan",
      "internet_access": null,
      "wheelchair_accessible": null,
      "opening_hours": "Tu-Sa 10:00-18:00",
      "grid-id": 142,
      "taxi-zone": 246,
      "precinct": 10,
      "b-score": null,
      "c-score": null,
      "rating": 1.5,
      "location": {
        "latitude": 40.7500805,
        "longitude": -74.0043727
      }
    },
    {
      "id": "MA134",
      "name": "Berry Campbell Gallery",
      "type": "museum_art",
      "address": "524 West 26th Street, 10001 Manhattan",
      "internet_access": null,
      "wheelchair_accessible": null,
      "opening_hours": "Tu-Sa 10:00-18:00",
      "grid-id": 142,
      "taxi-zone": 246,
      "precinct": 10,
      "b-score": null,
      "c-score": null,
      "rating": 1.5,
      "location": {
        "latitude": 40.7499492,
        "longitude": -74.0040157
      }
    },
    {
      "id": "MA135",
      "name": "Caelum Gallery",
      "type": "museum_art",
      "address": "526 West 26th Street, 10001 Manhattan",
      "internet_access": null,
      "wheelchair_accessible": null,
      "opening_hours": "Mo-Sa 12:00-18:00",
      "grid-id": 142,
      "taxi-zone": 246,
      "precinct": 10,
      "b-score": null,
      "c-score": null,
      "rating": 1.5,
      "location": {
        "latitude": 40.7499804,
        "longitude": -74.0042111
      }
    },
    {
      "id": "MA136",
      "name": "Fergus McCaffrey Gallery",
      "type": "museum_art",
      "address": "514 West 26th Street, 10001 Manhattan",
      "internet_access": null,
      "wheelchair_accessible": null,
      "opening_hours": "Tu-Sa 10:00-18:00",
      "grid-id": 142,
      "taxi-zone": 246,
      "precinct": 10,
      "b-score": null,
      "c-score": null,
      "rating": 1.5,
      "location": {
        "latitude": 40.7498115,
        "longitude": -74.0037006
      }
    },
    {
      "id": "MA137",
      "name": "Greene Naftali Gallery",
      "type": "museum_art",
      "address": "508 West 26th Street, 10001 Manhattan",
      "internet_access": null,
      "wheelchair_accessible": null,
      "opening_hours": "Tu-Sa 10:00-18:00",
      "grid-id": 179,
      "taxi-zone": 246,
      "precinct": 10,
      "b-score": null,
      "c-score": null,
      "rating": 1.5,
      "location": {
        "latitude": 40.7497696,
        "longitude": -74.0035852
      }
    },
    {
      "id": "MA138",
      "name": "Marlborough Gallery",
      "type": "museum_art",
      "address": "545 West 25th Street, 10001 Manhattan",
      "internet_access": null,
      "wheelchair_accessible": null,
      "opening_hours": "Tu-Sa 10:00-18:00",
      "grid-id": 142,
      "taxi-zone": 246,
      "precinct": 10,
      "b-score": null,
      "c-score": null,
      "rating": 1.5,
      "location": {
        "latitude": 40.7498665,
        "longitude": -74.005004
      }
    },
    {
      "id": "MA139",
      "name": "Cheim & Read",
      "type": "museum_art",
      "address": "547 West 25th Street, 10001 Manhattan",
      "internet_access": null,
      "wheelchair_accessible": null,
      "opening_hours": "Tu-Sa 10:00-18:00",
      "grid-id": 142,
      "taxi-zone": 246,
      "precinct": 10,
      "b-score": null,
      "c-score": null,
      "rating": 1.5,
      "location": {
        "latitude": 40.7499342,
        "longitude": -74.0051872
      }
    },
    {
      "id": "MA140",
      "name": "Gallery Henoch",
      "type": "museum_art",
      "address": "555 West 25th Street, 10001 Manhattan",
      "internet_access": null,
      "wheelchair_accessible": null,
      "opening_hours": "Tu-Sa 10:30-18:00",
      "grid-id": 142,
      "taxi-zone": 246,
      "precinct": 10,
      "b-score": null,
      "c-score": null,
      "rating": 1.5,
      "location": {
        "latitude": 40.7500313,
        "longitude": -74.0054024
      }
    },
    {
      "id": "MA141",
      "name": "The FLAG Art Foundation",
      "type": "museum_art",
      "address": "545 West 25th Street, 10001 Manhattan",
      "internet_access": null,
      "wheelchair_accessible": null,
      "opening_hours": "We-Sa 11:00-17:00",
      "grid-id": 142,
      "taxi-zone": 246,
      "precinct": 10,
      "b-score": null,
      "c-score": null,
      "rating": 1.5,
      "location": {
        "latitude": 40.749778,
        "longitude": -74.0055421
      }
    },
    {
      "id": "MA142",
      "name": "532 Gallery Thomas Jaeckel",
      "type": "museum_art",
      "address": "None None, None Manhattan",
      "internet_access": null,
      "wheelchair_accessible": null,
      "opening_hours": "Tu-sa 12:00-18:00",
      "grid-id": 143,
      "taxi-zone": 246,
      "precinct": 10,
      "b-score": null,
      "c-score": null,
      "rating": 1.5,
      "location": {
        "latitude": 40.7495009,
        "longitude": -74.0047674
      }
    },
    {
      "id": "MA143",
      "name": "Dobrinka Salzman Gallery",
      "type": "museum_art",
      "address": "532 West 25th Street, 10001 Manhattan",
      "internet_access": null,
      "wheelchair_accessible": null,
      "opening_hours": null,
      "grid-id": 143,
      "taxi-zone": 246,
      "precinct": 10,
      "b-score": null,
      "c-score": null,
      "rating": 1.5,
      "location": {
        "latitude": 40.7494518,
        "longitude": -74.0048244
      }
    },
    {
      "id": "MA144",
      "name": "Petzel Gallery",
      "type": "museum_art",
      "address": "520 West 25th Street, 10001 Manhattan",
      "internet_access": null,
      "wheelchair_accessible": null,
      "opening_hours": "tu-sa 10:00-18:00",
      "grid-id": 143,
      "taxi-zone": 246,
      "precinct": 10,
      "b-score": null,
      "c-score": null,
      "rating": 1.5,
      "location": {
        "latitude": 40.7492373,
        "longitude": -74.0042332
      }
    },
    {
      "id": "MA145",
      "name": "Lehmann Maupin",
      "type": "museum_art",
      "address": "501 West 24th Street, 10011 Manhattan",
      "internet_access": null,
      "wheelchair_accessible": null,
      "opening_hours": "Tu-Sa 10:00-18:00",
      "grid-id": 143,
      "taxi-zone": 246,
      "precinct": 10,
      "b-score": null,
      "c-score": null,
      "rating": 1.5,
      "location": {
        "latitude": 40.7485527,
        "longitude": -74.0038323
      }
    },
    {
      "id": "MA146",
      "name": "Silverlens Galleries",
      "type": "museum_art",
      "address": "505 West 24th Street, 10011 Manhattan",
      "internet_access": null,
      "wheelchair_accessible": null,
      "opening_hours": "Tu-Sa 10:00-18:00",
      "grid-id": 143,
      "taxi-zone": 246,
      "precinct": 10,
      "b-score": null,
      "c-score": null,
      "rating": 1.5,
      "location": {
        "latitude": 40.7486434,
        "longitude": -74.0040119
      }
    },
    {
      "id": "MA147",
      "name": "Marianne Boesky Gallery",
      "type": "museum_art",
      "address": "509 West 24th Street, 10011 Manhattan",
      "internet_access": null,
      "wheelchair_accessible": null,
      "opening_hours": "Tu-Sa 10:00-18:00",
      "grid-id": 143,
      "taxi-zone": 246,
      "precinct": 10,
      "b-score": null,
      "c-score": null,
      "rating": 1.5,
      "location": {
        "latitude": 40.7487557,
        "longitude": -74.0043141
      }
    },
    {
      "id": "MA148",
      "name": "Luhring Augustine Gallery",
      "type": "museum_art",
      "address": "531 West 24th Street, 10011 Manhattan",
      "internet_access": null,
      "wheelchair_accessible": null,
      "opening_hours": "Tu-Sa 10:00-18:00",
      "grid-id": 143,
      "taxi-zone": 246,
      "precinct": 10,
      "b-score": null,
      "c-score": null,
      "rating": 1.5,
      "location": {
        "latitude": 40.7491116,
        "longitude": -74.0050793
      }
    },
    {
      "id": "MA149",
      "name": "Print Center New York",
      "type": "museum_art",
      "address": "535 West 24th Street, 10011 Manhattan",
      "internet_access": null,
      "wheelchair_accessible": null,
      "opening_hours": null,
      "grid-id": 143,
      "taxi-zone": 246,
      "precinct": 10,
      "b-score": null,
      "c-score": null,
      "rating": 1.5,
      "location": {
        "latitude": 40.749162,
        "longitude": -74.0052774
      }
    },
    {
      "id": "MA150",
      "name": "C24 Gallery",
      "type": "museum_art",
      "address": "560 West 24th Street, 10011 Manhattan",
      "internet_access": null,
      "wheelchair_accessible": null,
      "opening_hours": "Tu-Sa 10:00-18:00",
      "grid-id": 108,
      "taxi-zone": 246,
      "precinct": 10,
      "b-score": null,
      "c-score": null,
      "rating": 1.5,
      "location": {
        "latitude": 40.7492207,
        "longitude": -74.0061341
      }
    },
    {
      "id": "MA151",
      "name": "Fredericks & Freiser",
      "type": "museum_art",
      "address": "536 West 24th Street, 10011 Manhattan",
      "internet_access": null,
      "wheelchair_accessible": null,
      "opening_hours": "Tu-Sa 10:00-18:00",
      "grid-id": 143,
      "taxi-zone": 246,
      "precinct": 10,
      "b-score": null,
      "c-score": null,
      "rating": 1.5,
      "location": {
        "latitude": 40.7490119,
        "longitude": -74.0055599
      }
    },
    {
      "id": "MA152",
      "name": "Philippe Labaune Gallery",
      "type": "museum_art",
      "address": "534 West 24th Street, 10001 Manhattan",
      "internet_access": null,
      "wheelchair_accessible": null,
      "opening_hours": "Tu-Sa 10:00-18:00",
      "grid-id": 143,
      "taxi-zone": 246,
      "precinct": 10,
      "b-score": null,
      "c-score": null,
      "rating": 1.5,
      "location": {
        "latitude": 40.7489832,
        "longitude": -74.0054342
      }
    },
    {
      "id": "MA153",
      "name": "Anna Zorina Gallery",
      "type": "museum_art",
      "address": "532 West 24th Street, 10011 Manhattan",
      "internet_access": null,
      "wheelchair_accessible": null,
      "opening_hours": "Tu-Sa 10:00-18:00",
      "grid-id": 143,
      "taxi-zone": 246,
      "precinct": 10,
      "b-score": null,
      "c-score": null,
      "rating": 1.5,
      "location": {
        "latitude": 40.7489431,
        "longitude": -74.0053524
      }
    },
    {
      "id": "MA154",
      "name": "Cavalier Gallery",
      "type": "museum_art",
      "address": "530 West 24th Street, 10011 Manhattan",
      "internet_access": null,
      "wheelchair_accessible": null,
      "opening_hours": "Tu-Sa 10:00-18:00",
      "grid-id": 143,
      "taxi-zone": 246,
      "precinct": 10,
      "b-score": null,
      "c-score": null,
      "rating": 1.5,
      "location": {
        "latitude": 40.7489086,
        "longitude": -74.0052508
      }
    },
    {
      "id": "MA155",
      "name": "Hunter Dunbar Projects",
      "type": "museum_art",
      "address": "524 West 24th Street, 10011 Manhattan",
      "internet_access": null,
      "wheelchair_accessible": null,
      "opening_hours": "Tu-Sa 10:00-18:00",
      "grid-id": 143,
      "taxi-zone": 246,
      "precinct": 10,
      "b-score": null,
      "c-score": null,
      "rating": 1.5,
      "location": {
        "latitude": 40.748787,
        "longitude": -74.0049963
      }
    },
    {
      "id": "MA156",
      "name": "Unix Gallery",
      "type": "museum_art",
      "address": "520 West 24th Street, 10011 Manhattan",
      "internet_access": null,
      "wheelchair_accessible": null,
      "opening_hours": "Tu-Sa 10:00-18:00",
      "grid-id": 143,
      "taxi-zone": 246,
      "precinct": 10,
      "b-score": null,
      "c-score": null,
      "rating": 1.5,
      "location": {
        "latitude": 40.7487261,
        "longitude": -74.0048372
      }
    },
    {
      "id": "MA157",
      "name": "Susan Inglett Gallery",
      "type": "museum_art",
      "address": "522 West 24th Street, 10011 Manhattan",
      "internet_access": null,
      "wheelchair_accessible": null,
      "opening_hours": "Tu-Sa 10:00-18:00",
      "grid-id": 143,
      "taxi-zone": 246,
      "precinct": 10,
      "b-score": null,
      "c-score": null,
      "rating": 1.5,
      "location": {
        "latitude": 40.7487583,
        "longitude": -74.0048993
      }
    },
    {
      "id": "MA158",
      "name": "Lisson Gallery",
      "type": "museum_art",
      "address": "508 West 24th Street, 10011 Manhattan",
      "internet_access": null,
      "wheelchair_accessible": null,
      "opening_hours": "Tu-Sa 10:00-18:00",
      "grid-id": 143,
      "taxi-zone": 246,
      "precinct": 10,
      "b-score": null,
      "c-score": null,
      "rating": 1.5,
      "location": {
        "latitude": 40.7485502,
        "longitude": -74.0044742
      }
    },
    {
      "id": "MA159",
      "name": "Asya Geisberg Gallery",
      "type": "museum_art",
      "address": "537b West 23rd Street, 10011 Manhattan",
      "internet_access": null,
      "wheelchair_accessible": null,
      "opening_hours": "Tu-Sa 11:00-18:00",
      "grid-id": 143,
      "taxi-zone": 246,
      "precinct": 10,
      "b-score": null,
      "c-score": null,
      "rating": 1.5,
      "location": {
        "latitude": 40.7484842,
        "longitude": -74.0055651
      }
    },
    {
      "id": "MA160",
      "name": "Margaret Thatcher Projects",
      "type": "museum_art",
      "address": "539 West 23rd Street, 10011 Manhattan",
      "internet_access": null,
      "wheelchair_accessible": null,
      "opening_hours": "Tu-Sa 11:00-18:00",
      "grid-id": 143,
      "taxi-zone": 246,
      "precinct": 10,
      "b-score": null,
      "c-score": null,
      "rating": 1.5,
      "location": {
        "latitude": 40.7485387,
        "longitude": -74.0056655
      }
    },
    {
      "id": "MA161",
      "name": "Crossing Art",
      "type": "museum_art",
      "address": "559 West 23rd Street, 10011 Manhattan",
      "internet_access": null,
      "wheelchair_accessible": null,
      "opening_hours": "Tu-Sa 10:00-18:00",
      "grid-id": 108,
      "taxi-zone": 246,
      "precinct": 10,
      "b-score": null,
      "c-score": null,
      "rating": 1.5,
      "location": {
        "latitude": 40.7488232,
        "longitude": -74.006396
      }
    },
    {
      "id": "MA162",
      "name": "Fremin Gallery",
      "type": "museum_art",
      "address": "520 West 23rd Street, 10011 Manhattan",
      "internet_access": null,
      "wheelchair_accessible": null,
      "opening_hours": "Tu-Sa 11:00-18:00",
      "grid-id": 143,
      "taxi-zone": 246,
      "precinct": 10,
      "b-score": null,
      "c-score": null,
      "rating": 1.5,
      "location": {
        "latitude": 40.7478552,
        "longitude": -74.0049853
      }
    },
    {
      "id": "MA163",
      "name": "Malin Gallery",
      "type": "museum_art",
      "address": "515 West 29th Street, 10001 Manhattan",
      "internet_access": null,
      "wheelchair_accessible": null,
      "opening_hours": "Tu-Sa 10:00-18:00",
      "grid-id": 178,
      "taxi-zone": 246,
      "precinct": 10,
      "b-score": null,
      "c-score": null,
      "rating": 1.5,
      "location": {
        "latitude": 40.75193,
        "longitude": -74.0022364
      }
    },
    {
      "id": "MA164",
      "name": "Microscope Gallery",
      "type": "museum_art",
      "address": "525 West 29th Street, 10001 Manhattan",
      "internet_access": null,
      "wheelchair_accessible": null,
      "opening_hours": "Tu-Sa 12:00-18:00",
      "grid-id": 178,
      "taxi-zone": 246,
      "precinct": 10,
      "b-score": null,
      "c-score": null,
      "rating": 1.5,
      "location": {
        "latitude": 40.7521088,
        "longitude": -74.0026522
      }
    },
    {
      "id": "MA165",
      "name": "Viridian Artists",
      "type": "museum_art",
      "address": "548 West 28th Street, 10001 Manhattan",
      "internet_access": null,
      "wheelchair_accessible": null,
      "opening_hours": "Tu-Sa 10:00-18:00",
      "grid-id": 141,
      "taxi-zone": 246,
      "precinct": 10,
      "b-score": null,
      "c-score": null,
      "rating": 1.5,
      "location": {
        "latitude": 40.7516496,
        "longitude": -74.0041354
      }
    },
    {
      "id": "MA166",
      "name": "Carter Burden Gallery",
      "type": "museum_art",
      "address": "548 West 28th Street, 10001 Manhattan",
      "internet_access": null,
      "wheelchair_accessible": null,
      "opening_hours": "Tu-Fr 11:00-17:00; Sa 11:00-18:00",
      "grid-id": 141,
      "taxi-zone": 246,
      "precinct": 10,
      "b-score": null,
      "c-score": null,
      "rating": 1.5,
      "location": {
        "latitude": 40.7516054,
        "longitude": -74.0041652
      }
    },
    {
      "id": "MA167",
      "name": "Blue Mountain Gallery",
      "type": "museum_art",
      "address": "547 West 27th Street, 10001 Manhattan",
      "internet_access": null,
      "wheelchair_accessible": null,
      "opening_hours": "Tu-Sa 11:00-18:00",
      "grid-id": 142,
      "taxi-zone": 246,
      "precinct": 10,
      "b-score": null,
      "c-score": null,
      "rating": 1.5,
      "location": {
        "latitude": 40.7512794,
        "longitude": -74.0045116
      }
    },
    {
      "id": "MA168",
      "name": "Montserrat Contemporary Art",
      "type": "museum_art",
      "address": "547 West 27th Street, 10001 Manhattan",
      "internet_access": null,
      "wheelchair_accessible": null,
      "opening_hours": "We-Sa 12:00-18:00",
      "grid-id": 142,
      "taxi-zone": 246,
      "precinct": 10,
      "b-score": null,
      "c-score": null,
      "rating": 1.5,
      "location": {
        "latitude": 40.7512504,
        "longitude": -74.0044236
      }
    },
    {
      "id": "MA169",
      "name": "Bowery Gallery",
      "type": "museum_art",
      "address": "547 West 27th Street, 10001 Manhattan",
      "internet_access": null,
      "wheelchair_accessible": null,
      "opening_hours": "Tu-Sa 11:00-18:00",
      "grid-id": 142,
      "taxi-zone": 246,
      "precinct": 10,
      "b-score": null,
      "c-score": null,
      "rating": 1.5,
      "location": {
        "latitude": 40.7513197,
        "longitude": -74.0044835
      }
    },
    {
      "id": "MA170",
      "name": "Prince Street Gallery",
      "type": "museum_art",
      "address": "547 West 27th Street, 10001 Manhattan",
      "internet_access": null,
      "wheelchair_accessible": null,
      "opening_hours": "Tu-Sa 11:00-18:00",
      "grid-id": 142,
      "taxi-zone": 246,
      "precinct": 10,
      "b-score": null,
      "c-score": null,
      "rating": 1.5,
      "location": {
        "latitude": 40.7513549,
        "longitude": -74.004452
      }
    },
    {
      "id": "MA171",
      "name": "The Painting Center",
      "type": "museum_art",
      "address": "547 West 27th Street, 10001 Manhattan",
      "internet_access": null,
      "wheelchair_accessible": null,
      "opening_hours": "Tu 10:00-16:00; We-Sa 11:00-18:00",
      "grid-id": 142,
      "taxi-zone": 246,
      "precinct": 10,
      "b-score": null,
      "c-score": null,
      "rating": 1.5,
      "location": {
        "latitude": 40.7512854,
        "longitude": -74.0043977
      }
    },
    {
      "id": "MA172",
      "name": "Ross + Kramer Gallery",
      "type": "museum_art",
      "address": "515 West 27th Street, 10001 Manhattan",
      "internet_access": null,
      "wheelchair_accessible": null,
      "opening_hours": "Tu-Sa 11:00-18:00",
      "grid-id": 179,
      "taxi-zone": 246,
      "precinct": 10,
      "b-score": null,
      "c-score": null,
      "rating": 1.5,
      "location": {
        "latitude": 40.7507088,
        "longitude": -74.0031538
      }
    },
    {
      "id": "MA173",
      "name": "Kasmin Gallery",
      "type": "museum_art",
      "address": "509 West 27th Street, 10001 Manhattan",
      "internet_access": null,
      "wheelchair_accessible": null,
      "opening_hours": "Tu-Sa 10:00-18:00",
      "grid-id": 179,
      "taxi-zone": 246,
      "precinct": 10,
      "b-score": null,
      "c-score": null,
      "rating": 1.5,
      "location": {
        "latitude": 40.750597,
        "longitude": -74.0029311
      }
    },
    {
      "id": "MA174",
      "name": "De Buck Gallery",
      "type": "museum_art",
      "address": "507 West 27th Street, 10001 Manhattan",
      "internet_access": null,
      "wheelchair_accessible": null,
      "opening_hours": null,
      "grid-id": 179,
      "taxi-zone": 246,
      "precinct": 10,
      "b-score": null,
      "c-score": null,
      "rating": 1.5,
      "location": {
        "latitude": 40.7505056,
        "longitude": -74.0027621
      }
    },
    {
      "id": "MA175",
      "name": "The Global Fine Art Contemporary Art Gallery",
      "type": "museum_art",
      "address": "507 West 27th Street, 10001 Manhattan",
      "internet_access": null,
      "wheelchair_accessible": null,
      "opening_hours": "+1-646-378-7907",
      "grid-id": 179,
      "taxi-zone": 246,
      "precinct": 10,
      "b-score": null,
      "c-score": null,
      "rating": 1.5,
      "location": {
        "latitude": 40.7505158,
        "longitude": -74.0027353
      }
    },
    {
      "id": "MA176",
      "name": "Galerie Templon",
      "type": "museum_art",
      "address": "293 10th Avenue, 10001 Manhattan",
      "internet_access": null,
      "wheelchair_accessible": null,
      "opening_hours": "Tu-Sa 10:00-18:00",
      "grid-id": 179,
      "taxi-zone": 246,
      "precinct": 10,
      "b-score": null,
      "c-score": null,
      "rating": 1.5,
      "location": {
        "latitude": 40.7501683,
        "longitude": -74.0026414
      }
    },
    {
      "id": "MA177",
      "name": "Nancy Hoffman Gallery",
      "type": "museum_art",
      "address": "520 West 27th Street, 10001 Manhattan",
      "internet_access": null,
      "wheelchair_accessible": null,
      "opening_hours": "Tu-Sa 11:00-17:30",
      "grid-id": 179,
      "taxi-zone": 246,
      "precinct": 10,
      "b-score": null,
      "c-score": null,
      "rating": 1.5,
      "location": {
        "latitude": 40.7505666,
        "longitude": -74.0034944
      }
    },
    {
      "id": "MA178",
      "name": "Miles McEnery Gallery",
      "type": "museum_art",
      "address": "511 West 22nd Street, 10011 Manhattan",
      "internet_access": null,
      "wheelchair_accessible": null,
      "opening_hours": "Tu-Sa 10:00-18:00",
      "grid-id": 144,
      "taxi-zone": 246,
      "precinct": 10,
      "b-score": null,
      "c-score": null,
      "rating": 1.5,
      "location": {
        "latitude": 40.7474277,
        "longitude": -74.0053206
      }
    },
    {
      "id": "MA179",
      "name": "Sugarlift Gallery",
      "type": "museum_art",
      "address": "508 West 28th Street, 10001 Manhattan",
      "internet_access": null,
      "wheelchair_accessible": null,
      "opening_hours": "Tu-Fr 10:00-18:00; Sa 12:00-18:00",
      "grid-id": 179,
      "taxi-zone": 246,
      "precinct": 10,
      "b-score": null,
      "c-score": null,
      "rating": 1.5,
      "location": {
        "latitude": 40.7509297,
        "longitude": -74.0024163
      }
    },
    {
      "id": "MA180",
      "name": "Davidson Gallery",
      "type": "museum_art",
      "address": "521 West 26th Street, 10001 Manhattan",
      "internet_access": null,
      "wheelchair_accessible": null,
      "opening_hours": "Tu-Sa 11:00-18:00",
      "grid-id": 142,
      "taxi-zone": 246,
      "precinct": 10,
      "b-score": null,
      "c-score": null,
      "rating": 1.5,
      "location": {
        "latitude": 40.7501702,
        "longitude": -74.0037157
      }
    },
    {
      "id": "MA181",
      "name": "Albertz Benda Gallery",
      "type": "museum_art",
      "address": "515 West 26th Street, 10001 Manhattan",
      "internet_access": null,
      "wheelchair_accessible": null,
      "opening_hours": "Mo-Fr 10:00-18:00",
      "grid-id": 179,
      "taxi-zone": 246,
      "precinct": 10,
      "b-score": null,
      "c-score": null,
      "rating": 1.5,
      "location": {
        "latitude": 40.7500552,
        "longitude": -74.0035864
      }
    },
    {
      "id": "MA182",
      "name": "Hollis Taggart Gallery",
      "type": "museum_art",
      "address": "521 West 26th Street, 10001 Manhattan",
      "internet_access": null,
      "wheelchair_accessible": null,
      "opening_hours": "Tu-Sa 11:00-17:00",
      "grid-id": 142,
      "taxi-zone": 246,
      "precinct": 10,
      "b-score": null,
      "c-score": null,
      "rating": 1.5,
      "location": {
        "latitude": 40.7501299,
        "longitude": -74.0037594
      }
    },
    {
      "id": "MA183",
      "name": "Friedman Benda Gallery",
      "type": "museum_art",
      "address": "515 West 26th Street, 10001 Manhattan",
      "internet_access": null,
      "wheelchair_accessible": null,
      "opening_hours": "Tu-Sa 10:00-18:00",
      "grid-id": 179,
      "taxi-zone": 246,
      "precinct": 10,
      "b-score": null,
      "c-score": null,
      "rating": 1.5,
      "location": {
        "latitude": 40.7501029,
        "longitude": -74.0035148
      }
    },
    {
      "id": "MA184",
      "name": "Ryan Lee Gallery",
      "type": "museum_art",
      "address": "515 West 26th Street, 10001 Manhattan",
      "internet_access": null,
      "wheelchair_accessible": null,
      "opening_hours": "Tu-Sa 10:00-18:00",
      "grid-id": 179,
      "taxi-zone": 246,
      "precinct": 10,
      "b-score": null,
      "c-score": null,
      "rating": 1.5,
      "location": {
        "latitude": 40.7501197,
        "longitude": -74.0035878
      }
    },
    {
      "id": "MA185",
      "name": "Thomas Erben Gallery",
      "type": "museum_art",
      "address": "526 West 26th Street, 10001 Manhattan",
      "internet_access": null,
      "wheelchair_accessible": null,
      "opening_hours": "Tu-Sa 11:00-18:00",
      "grid-id": 142,
      "taxi-zone": 246,
      "precinct": 10,
      "b-score": null,
      "c-score": null,
      "rating": 1.5,
      "location": {
        "latitude": 40.7499597,
        "longitude": -74.0041571
      }
    },
    {
      "id": "MA186",
      "name": "BravinLee Gallery",
      "type": "museum_art",
      "address": "526 West 26th Street, 10001 Manhattan",
      "internet_access": null,
      "wheelchair_accessible": null,
      "opening_hours": "We-Sa 12:00-17:00",
      "grid-id": 142,
      "taxi-zone": 246,
      "precinct": 10,
      "b-score": null,
      "c-score": null,
      "rating": 1.5,
      "location": {
        "latitude": 40.7499417,
        "longitude": -74.0042354
      }
    },
    {
      "id": "MA187",
      "name": "Morgan Lehman Gallery",
      "type": "museum_art",
      "address": "526 West 26th Street, 10001 Manhattan",
      "internet_access": null,
      "wheelchair_accessible": null,
      "opening_hours": "Tu-Sa 11:00-18:00",
      "grid-id": 142,
      "taxi-zone": 246,
      "precinct": 10,
      "b-score": null,
      "c-score": null,
      "rating": 1.5,
      "location": {
        "latitude": 40.7499777,
        "longitude": -74.0041101
      }
    },
    {
      "id": "MA188",
      "name": "Hesse Flatow Gallery",
      "type": "museum_art",
      "address": "508 West 26th Street, 10001 Manhattan",
      "internet_access": null,
      "wheelchair_accessible": null,
      "opening_hours": "Tu-Sa 11:00-18:00",
      "grid-id": 179,
      "taxi-zone": 246,
      "precinct": 10,
      "b-score": null,
      "c-score": null,
      "rating": 1.5,
      "location": {
        "latitude": 40.7497344,
        "longitude": -74.0036085
      }
    },
    {
      "id": "MA189",
      "name": "Deborah Bell Photographs",
      "type": "museum_art",
      "address": "526 West 26th Street, 10001 Manhattan",
      "internet_access": null,
      "wheelchair_accessible": null,
      "opening_hours": "Th-Sa 11:00-17:00",
      "grid-id": 142,
      "taxi-zone": 246,
      "precinct": 10,
      "b-score": null,
      "c-score": null,
      "rating": 1.5,
      "location": {
        "latitude": 40.749941,
        "longitude": -74.0041149
      }
    },
    {
      "id": "MA190",
      "name": "Alexander Gray Associates Gallery",
      "type": "museum_art",
      "address": "510 West 26th Street, 10001 Manhattan",
      "internet_access": null,
      "wheelchair_accessible": null,
      "opening_hours": "Tu-Sa 10:30-18:00",
      "grid-id": 179,
      "taxi-zone": 246,
      "precinct": 10,
      "b-score": null,
      "c-score": null,
      "rating": 1.5,
      "location": {
        "latitude": 40.7497859,
        "longitude": -74.0036422
      }
    },
    {
      "id": "MA191",
      "name": "Daniel Cooney Fine Art Gallery",
      "type": "museum_art",
      "address": "508 West 26th Street, 10001 Manhattan",
      "internet_access": null,
      "wheelchair_accessible": null,
      "opening_hours": "We-Sa 11:00-18:00",
      "grid-id": 179,
      "taxi-zone": 246,
      "precinct": 10,
      "b-score": null,
      "c-score": null,
      "rating": 1.5,
      "location": {
        "latitude": 40.7497076,
        "longitude": -74.0036348
      }
    },
    {
      "id": "MA192",
      "name": "David Richard Gallery",
      "type": "museum_art",
      "address": "508 West 26th Street, 10001 Manhattan",
      "internet_access": null,
      "wheelchair_accessible": null,
      "opening_hours": "Tu-Sa 10:00-18:00",
      "grid-id": 179,
      "taxi-zone": 246,
      "precinct": 10,
      "b-score": null,
      "c-score": null,
      "rating": 1.5,
      "location": {
        "latitude": 40.7496717,
        "longitude": -74.0036627
      }
    },
    {
      "id": "MA193",
      "name": "Yossi Milo Gallery",
      "type": "museum_art",
      "address": "245 10th Avenue, 10001 Manhattan",
      "internet_access": null,
      "wheelchair_accessible": null,
      "opening_hours": "Tu-Sa 10:00-18:00",
      "grid-id": 143,
      "taxi-zone": 246,
      "precinct": 10,
      "b-score": null,
      "c-score": null,
      "rating": 1.5,
      "location": {
        "latitude": 40.7487598,
        "longitude": -74.0036923
      }
    },
    {
      "id": "MA194",
      "name": "Yancey Richardson Gallery",
      "type": "museum_art",
      "address": "525 West 22nd Street, 10011 Manhattan",
      "internet_access": null,
      "wheelchair_accessible": null,
      "opening_hours": "Tu-Sa 10:00-18:00",
      "grid-id": 144,
      "taxi-zone": 246,
      "precinct": 10,
      "b-score": null,
      "c-score": null,
      "rating": 1.5,
      "location": {
        "latitude": 40.7475857,
        "longitude": -74.0057016
      }
    },
    {
      "id": "MA195",
      "name": "DC Moore Gallery",
      "type": "museum_art",
      "address": "535 West 22nd Street, 10011 Manhattan",
      "internet_access": null,
      "wheelchair_accessible": null,
      "opening_hours": "Tu-Sa 10:00-18:00",
      "grid-id": 109,
      "taxi-zone": 246,
      "precinct": 10,
      "b-score": null,
      "c-score": null,
      "rating": 1.5,
      "location": {
        "latitude": 40.7477676,
        "longitude": -74.006149
      }
    },
    {
      "id": "MA196",
      "name": "Dia Chelsea",
      "type": "museum_art",
      "address": "537 West 22nd Street, 10011 Manhattan",
      "internet_access": null,
      "wheelchair_accessible": null,
      "opening_hours": "We-Sa 12:00-18:00",
      "grid-id": 109,
      "taxi-zone": 246,
      "precinct": 10,
      "b-score": null,
      "c-score": null,
      "rating": 1.5,
      "location": {
        "latitude": 40.7478387,
        "longitude": -74.0063018
      }
    },
    {
      "id": "MA197",
      "name": "Hauser & Wirth",
      "type": "museum_art",
      "address": "542 West 22nd Street, 10011 Manhattan",
      "internet_access": null,
      "wheelchair_accessible": null,
      "opening_hours": "Tu-Sa 10:00-18:00",
      "grid-id": 109,
      "taxi-zone": 246,
      "precinct": 10,
      "b-score": null,
      "c-score": null,
      "rating": 1.5,
      "location": {
        "latitude": 40.7477523,
        "longitude": -74.0066657
      }
    },
    {
      "id": "MA198",
      "name": "Harper's Chelsea",
      "type": "museum_art",
      "address": "534 West 22nd Street, 10011 Manhattan",
      "internet_access": null,
      "wheelchair_accessible": null,
      "opening_hours": "Tu-Sa 10:00-18:00",
      "grid-id": 109,
      "taxi-zone": 246,
      "precinct": 10,
      "b-score": null,
      "c-score": null,
      "rating": 1.5,
      "location": {
        "latitude": 40.7476243,
        "longitude": -74.0063743
      }
    },
    {
      "id": "MA199",
      "name": "Sikkema Jenkins & Co.",
      "type": "museum_art",
      "address": "530 West 22nd Street, 10011 Manhattan",
      "internet_access": null,
      "wheelchair_accessible": null,
      "opening_hours": "Tu-Sa 10:00-18:00",
      "grid-id": 144,
      "taxi-zone": 246,
      "precinct": 10,
      "b-score": null,
      "c-score": null,
      "rating": 1.5,
      "location": {
        "latitude": 40.7474851,
        "longitude": -74.0060323
      }
    },
    {
      "id": "MA200",
      "name": "Matthew Marks Gallery",
      "type": "museum_art",
      "address": "526 West 22nd Street, 10011 Manhattan",
      "internet_access": null,
      "wheelchair_accessible": null,
      "opening_hours": null,
      "grid-id": 144,
      "taxi-zone": 246,
      "precinct": 10,
      "b-score": null,
      "c-score": null,
      "rating": 1.5,
      "location": {
        "latitude": 40.7474526,
        "longitude": -74.0059397
      }
    },
    {
      "id": "MA201",
      "name": "Nara Roesler Gallery",
      "type": "museum_art",
      "address": "511 West 21st Street, 10011 Manhattan",
      "internet_access": null,
      "wheelchair_accessible": null,
      "opening_hours": "Tu-Sa 10:00-18:00",
      "grid-id": 144,
      "taxi-zone": 246,
      "precinct": 10,
      "b-score": null,
      "c-score": null,
      "rating": 1.5,
      "location": {
        "latitude": 40.7467918,
        "longitude": -74.0057122
      }
    },
    {
      "id": "MA202",
      "name": "Tina Kim Gallery",
      "type": "museum_art",
      "address": "525 West 21st Street, 10011 Manhattan",
      "internet_access": null,
      "wheelchair_accessible": null,
      "opening_hours": "Tu-Sa 10:00-18:00",
      "grid-id": 109,
      "taxi-zone": 246,
      "precinct": 10,
      "b-score": null,
      "c-score": null,
      "rating": 1.5,
      "location": {
        "latitude": 40.7470553,
        "longitude": -74.0063448
      }
    },
    {
      "id": "MA203",
      "name": "Kravets Wehby Gallery",
      "type": "museum_art",
      "address": "521 West 21st Street, 10011 Manhattan",
      "internet_access": null,
      "wheelchair_accessible": null,
      "opening_hours": "Tu-Sa 11:00-18:00",
      "grid-id": 109,
      "taxi-zone": 246,
      "precinct": 10,
      "b-score": null,
      "c-score": null,
      "rating": 1.5,
      "location": {
        "latitude": 40.7469617,
        "longitude": -74.006111
      }
    },
    {
      "id": "MA204",
      "name": "Tanya Bonakdar Gallery",
      "type": "museum_art",
      "address": "521 West 21st Street, 10011 Manhattan",
      "internet_access": null,
      "wheelchair_accessible": null,
      "opening_hours": "Tu-Sa 10:00-18:00",
      "grid-id": 109,
      "taxi-zone": 246,
      "precinct": 10,
      "b-score": null,
      "c-score": null,
      "rating": 1.5,
      "location": {
        "latitude": 40.7470364,
        "longitude": -74.0062914
      }
    },
    {
      "id": "MA205",
      "name": "Hales Gallery",
      "type": "museum_art",
      "address": "547 West 20th Street, 10011 Manhattan",
      "internet_access": null,
      "wheelchair_accessible": null,
      "opening_hours": "Tu-Sa 10:00-18:00",
      "grid-id": 109,
      "taxi-zone": 246,
      "precinct": 10,
      "b-score": null,
      "c-score": null,
      "rating": 1.5,
      "location": {
        "latitude": 40.746867,
        "longitude": -74.0076175
      }
    },
    {
      "id": "MA206",
      "name": "Galleria Ca' d'Oro",
      "type": "museum_art",
      "address": "179 10th Avenue, 10011 Manhattan",
      "internet_access": null,
      "wheelchair_accessible": null,
      "opening_hours": "Mo-Fr 10:00-18:00; Sa 11:00-18:00; Su 12:00-17:00",
      "grid-id": 144,
      "taxi-zone": 246,
      "precinct": 10,
      "b-score": null,
      "c-score": null,
      "rating": 1.5,
      "location": {
        "latitude": 40.7462737,
        "longitude": -74.0054234
      }
    },
    {
      "id": "MA207",
      "name": "Washburn Gallery",
      "type": "museum_art",
      "address": "177 10th Avenue, 10011 Manhattan",
      "internet_access": null,
      "wheelchair_accessible": null,
      "opening_hours": "Tu-Sa 10:00-18:00",
      "grid-id": 144,
      "taxi-zone": 246,
      "precinct": 10,
      "b-score": null,
      "c-score": null,
      "rating": 1.5,
      "location": {
        "latitude": 40.7462423,
        "longitude": -74.0054891
      }
    },
    {
      "id": "MA208",
      "name": "Praxis Gallery",
      "type": "museum_art",
      "address": "501 West 20th Street, 10011 Manhattan",
      "internet_access": null,
      "wheelchair_accessible": null,
      "opening_hours": "Tu-Sa 9:00-17:00",
      "grid-id": 144,
      "taxi-zone": 246,
      "precinct": 10,
      "b-score": null,
      "c-score": null,
      "rating": 1.5,
      "location": {
        "latitude": 40.7460607,
        "longitude": -74.0057581
      }
    },
    {
      "id": "MA209",
      "name": "Jack Shainman Gallery",
      "type": "museum_art",
      "address": "513 West 20th Street, 10011 Manhattan",
      "internet_access": null,
      "wheelchair_accessible": null,
      "opening_hours": "Tu-Sa 10:00-18:00",
      "grid-id": 109,
      "taxi-zone": 246,
      "precinct": 10,
      "b-score": null,
      "c-score": null,
      "rating": 1.5,
      "location": {
        "latitude": 40.7462478,
        "longitude": -74.0062412
      }
    },
    {
      "id": "MA210",
      "name": "Sean Horton Gallery",
      "type": "museum_art",
      "address": "515 West 20th Street, 10011 Manhattan",
      "internet_access": null,
      "wheelchair_accessible": null,
      "opening_hours": "We-Sa 12:00-18:00",
      "grid-id": 109,
      "taxi-zone": 246,
      "precinct": 10,
      "b-score": null,
      "c-score": null,
      "rating": 1.5,
      "location": {
        "latitude": 40.7462709,
        "longitude": -74.006296
      }
    },
    {
      "id": "MA211",
      "name": "Ricco/Maresca Gallery",
      "type": "museum_art",
      "address": "529 West 20th Street, 10011 Manhattan",
      "internet_access": null,
      "wheelchair_accessible": null,
      "opening_hours": "Tu-Fr 10:30-18:00; Sa 11:00-18:00",
      "grid-id": 109,
      "taxi-zone": 246,
      "precinct": 10,
      "b-score": null,
      "c-score": null,
      "rating": 1.5,
      "location": {
        "latitude": 40.7465171,
        "longitude": -74.0068656
      }
    },
    {
      "id": "MA212",
      "name": "Kathryn Markel Fine Arts",
      "type": "museum_art",
      "address": "529 West 20th Street, 10011 Manhattan",
      "internet_access": null,
      "wheelchair_accessible": null,
      "opening_hours": "Tu-Fr 10:00-18:00; Sa 11:00-18:00",
      "grid-id": 109,
      "taxi-zone": 246,
      "precinct": 10,
      "b-score": null,
      "c-score": null,
      "rating": 1.5,
      "location": {
        "latitude": 40.7465678,
        "longitude": -74.0068303
      }
    },
    {
      "id": "MA213",
      "name": "ACA Galleries",
      "type": "museum_art",
      "address": "529 West 20th Street, 10011 Manhattan",
      "internet_access": null,
      "wheelchair_accessible": null,
      "opening_hours": "Tu-Sa 11:00-18:00",
      "grid-id": 109,
      "taxi-zone": 246,
      "precinct": 10,
      "b-score": null,
      "c-score": null,
      "rating": 1.5,
      "location": {
        "latitude": 40.7465429,
        "longitude": -74.0068474
      }
    },
    {
      "id": "MA214",
      "name": "Elizabeth Harris Gallery",
      "type": "museum_art",
      "address": "529 West 20th Street, 10011 Manhattan",
      "internet_access": null,
      "wheelchair_accessible": null,
      "opening_hours": "Tu-Sa 12:00-18:00",
      "grid-id": 109,
      "taxi-zone": 246,
      "precinct": 10,
      "b-score": null,
      "c-score": null,
      "rating": 1.5,
      "location": {
        "latitude": 40.7465936,
        "longitude": -74.0068108
      }
    },
    {
      "id": "MA215",
      "name": "David Zwirner Gallery",
      "type": "museum_art",
      "address": "537 West 20th Street, 10011 Manhattan",
      "internet_access": null,
      "wheelchair_accessible": null,
      "opening_hours": null,
      "grid-id": 109,
      "taxi-zone": 246,
      "precinct": 10,
      "b-score": null,
      "c-score": null,
      "rating": 1.5,
      "location": {
        "latitude": 40.7466379,
        "longitude": -74.0071808
      }
    },
    {
      "id": "MA216",
      "name": "Kurimanzutto Gallery",
      "type": "museum_art",
      "address": "520 West 20th Street, 10011 Manhattan",
      "internet_access": null,
      "wheelchair_accessible": null,
      "opening_hours": "Tu-Sa 10:00-18:00",
      "grid-id": 109,
      "taxi-zone": 246,
      "precinct": 10,
      "b-score": null,
      "c-score": null,
      "rating": 1.5,
      "location": {
        "latitude": 40.7462706,
        "longitude": -74.0069444
      }
    },
    {
      "id": "MA217",
      "name": "David Kordansky Gallery",
      "type": "museum_art",
      "address": "520 West 20th Street, 10011 Manhattan",
      "internet_access": null,
      "wheelchair_accessible": null,
      "opening_hours": "Tu-Sa 10:00-18:00",
      "grid-id": 109,
      "taxi-zone": 246,
      "precinct": 10,
      "b-score": null,
      "c-score": null,
      "rating": 1.5,
      "location": {
        "latitude": 40.7462173,
        "longitude": -74.0067977
      }
    },
    {
      "id": "MA218",
      "name": "Ulrik Gallery",
      "type": "museum_art",
      "address": "453 West 17th Street, 10011 Manhattan",
      "internet_access": null,
      "wheelchair_accessible": null,
      "opening_hours": "We-Sa 12:00-18:00",
      "grid-id": 111,
      "taxi-zone": 68,
      "precinct": 10,
      "b-score": null,
      "c-score": null,
      "rating": 1.5,
      "location": {
        "latitude": 40.7439372,
        "longitude": -74.0061805
      }
    },
    {
      "id": "MA219",
      "name": "Slag Gallery",
      "type": "museum_art",
      "address": "522 West 19th Street, 10011 Manhattan",
      "internet_access": null,
      "wheelchair_accessible": null,
      "opening_hours": "Tu-Fr 10:00-13:00; Tu-Fr 14:00-18:00; Sa 10:00-18:00",
      "grid-id": 110,
      "taxi-zone": 246,
      "precinct": 10,
      "b-score": null,
      "c-score": null,
      "rating": 1.5,
      "location": {
        "latitude": 40.7455769,
        "longitude": -74.0070663
      }
    },
    {
      "id": "MA220",
      "name": "Michael Rosenfield Art",
      "type": "museum_art",
      "address": "100 11th Avenue, 10011 Manhattan",
      "internet_access": null,
      "wheelchair_accessible": null,
      "opening_hours": "Tu-Sa 10:00-18:00",
      "grid-id": 109,
      "taxi-zone": 246,
      "precinct": 10,
      "b-score": null,
      "c-score": null,
      "rating": 1.5,
      "location": {
        "latitude": 40.7461924,
        "longitude": -74.0077206
      }
    },
    {
      "id": "MA221",
      "name": "Pratt Manhattan Gallery",
      "type": "museum_art",
      "address": "None None, None Manhattan",
      "internet_access": null,
      "wheelchair_accessible": null,
      "opening_hours": "Mo-Sa 11:00-18:00",
      "grid-id": 224,
      "taxi-zone": 249,
      "precinct": 6,
      "b-score": null,
      "c-score": null,
      "rating": 1.5,
      "location": {
        "latitude": 40.7380759,
        "longitude": -73.9989918
      }
    },
    {
      "id": "MA222",
      "name": "The 8th Floor Gallery",
      "type": "museum_art",
      "address": "17 West 17th Street, 10011 Manhattan",
      "internet_access": null,
      "wheelchair_accessible": null,
      "opening_hours": "Th-Sa 11:00-18:00",
      "grid-id": 339,
      "taxi-zone": 234,
      "precinct": 13,
      "b-score": null,
      "c-score": null,
      "rating": 1.5,
      "location": {
        "latitude": 40.7385275,
        "longitude": -73.9932713
      }
    },
    {
      "id": "MA223",
      "name": "Ethan Cohen Gallery",
      "type": "museum_art",
      "address": "251 West 19th Street, 10011 Manhattan",
      "internet_access": null,
      "wheelchair_accessible": null,
      "opening_hours": null,
      "grid-id": 221,
      "taxi-zone": 90,
      "precinct": 10,
      "b-score": null,
      "c-score": null,
      "rating": 1.5,
      "location": {
        "latitude": 40.742528,
        "longitude": -73.9991606
      }
    },
    {
      "id": "MA225",
      "name": "Richard Morris Hunt",
      "type": "museum_art",
      "address": "None None, None Manhattan",
      "internet_access": null,
      "wheelchair_accessible": null,
      "opening_hours": null,
      "grid-id": 835,
      "taxi-zone": 43,
      "precinct": 22,
      "b-score": null,
      "c-score": null,
      "rating": 1.5,
      "location": {
        "latitude": 40.7714555,
        "longitude": -73.9679875
      }
    },
    {
      "id": "MA226",
      "name": "Joan of Arc Memorial",
      "type": "museum_art",
      "address": "None None, None Manhattan",
      "internet_access": null,
      "wheelchair_accessible": null,
      "opening_hours": null,
      "grid-id": 629,
      "taxi-zone": 238,
      "precinct": 24,
      "b-score": null,
      "c-score": null,
      "rating": 1.5,
      "location": {
        "latitude": 40.7941111,
        "longitude": -73.9764799
      }
    },
    {
      "id": "MA228",
      "name": "Sir Walter Scott",
      "type": "museum_art",
      "address": "None None, None Manhattan",
      "internet_access": null,
      "wheelchair_accessible": null,
      "opening_hours": null,
      "grid-id": 746,
      "taxi-zone": 43,
      "precinct": 22,
      "b-score": null,
      "c-score": null,
      "rating": 1.5,
      "location": {
        "latitude": 40.7701407,
        "longitude": -73.9723395
      }
    },
    {
      "id": "MA229",
      "name": "Robert Burns",
      "type": "museum_art",
      "address": "None None, None Manhattan",
      "internet_access": null,
      "wheelchair_accessible": null,
      "opening_hours": null,
      "grid-id": 746,
      "taxi-zone": 43,
      "precinct": 22,
      "b-score": null,
      "c-score": null,
      "rating": 1.5,
      "location": {
        "latitude": 40.770193,
        "longitude": -73.9725659
      }
    },
    {
      "id": "MA230",
      "name": "Christopher Columbus",
      "type": "museum_art",
      "address": "None None, None Manhattan",
      "internet_access": null,
      "wheelchair_accessible": null,
      "opening_hours": null,
      "grid-id": 746,
      "taxi-zone": 43,
      "precinct": 22,
      "b-score": null,
      "c-score": null,
      "rating": 1.5,
      "location": {
        "latitude": 40.7699059,
        "longitude": -73.9727725
      }
    },
    {
      "id": "MA232",
      "name": "William Shakespeare",
      "type": "museum_art",
      "address": "None None, None Manhattan",
      "internet_access": null,
      "wheelchair_accessible": null,
      "opening_hours": null,
      "grid-id": 746,
      "taxi-zone": 43,
      "precinct": 22,
      "b-score": null,
      "c-score": null,
      "rating": 1.5,
      "location": {
        "latitude": 40.7697989,
        "longitude": -73.9723702
      }
    },
    {
      "id": "MA233",
      "name": "Indian Hunter",
      "type": "museum_art",
      "address": "None None, None Manhattan",
      "internet_access": null,
      "wheelchair_accessible": null,
      "opening_hours": null,
      "grid-id": 694,
      "taxi-zone": 43,
      "precinct": 22,
      "b-score": null,
      "c-score": null,
      "rating": 1.5,
      "location": {
        "latitude": 40.7703769,
        "longitude": -73.9731523
      }
    },
    {
      "id": "MA234",
      "name": "Fitz-Greene Halleck",
      "type": "museum_art",
      "address": "None None, None Manhattan",
      "internet_access": null,
      "wheelchair_accessible": null,
      "opening_hours": null,
      "grid-id": 746,
      "taxi-zone": 43,
      "precinct": 22,
      "b-score": null,
      "c-score": null,
      "rating": 1.5,
      "location": {
        "latitude": 40.7706639,
        "longitude": -73.9721367
      }
    },
    {
      "id": "MA235",
      "name": "Alice in Wonderland",
      "type": "museum_art",
      "address": "None None, None Manhattan",
      "internet_access": null,
      "wheelchair_accessible": null,
      "opening_hours": null,
      "grid-id": 833,
      "taxi-zone": 43,
      "precinct": 22,
      "b-score": null,
      "c-score": null,
      "rating": 1.5,
      "location": {
        "latitude": 40.7750382,
        "longitude": -73.9665337
      }
    },
    {
      "id": "MA237",
      "name": "Triumph of the Human Spirit",
      "type": "museum_art",
      "address": "None None, None Manhattan",
      "internet_access": null,
      "wheelchair_accessible": "yes",
      "opening_hours": null,
      "grid-id": 199,
      "taxi-zone": 231,
      "precinct": 5,
      "b-score": null,
      "c-score": null,
      "rating": 1.5,
      "location": {
        "latitude": 40.7144385,
        "longitude": -74.0028881
      }
    },
    {
      "id": "MA238",
      "name": "Prometheus",
      "type": "museum_art",
      "address": "None None, None Manhattan",
      "internet_access": null,
      "wheelchair_accessible": null,
      "opening_hours": null,
      "grid-id": 597,
      "taxi-zone": 161,
      "precinct": 18,
      "b-score": null,
      "c-score": null,
      "rating": 1.5,
      "location": {
        "latitude": 40.7587051,
        "longitude": -73.9785783
      }
    },
    {
      "id": "MA241",
      "name": "3000 A.D. Diffusion Piece",
      "type": "museum_art",
      "address": "None None, None Manhattan",
      "internet_access": null,
      "wheelchair_accessible": null,
      "opening_hours": null,
      "grid-id": 1222,
      "taxi-zone": 244,
      "precinct": 33,
      "b-score": null,
      "c-score": null,
      "rating": 1.5,
      "location": {
        "latitude": 40.8471692,
        "longitude": -73.9420363
      }
    },